start,Unnamed: 0,RBD.y,RBD.x,NUM_EST,NOM_ORIGEN,LAT_ORIGEN,LON_ORIGEN,PMA_ORIGEN,PME_ORIGEN,NOM_DESTINO,LAT_DESTINO,LON_DESTINO,PMA_DESTINO,PME_DESTINO,end
2018-01-01,1,8609,8762,1.0,COLEGIO SANTA ELENA CARMELITAS MISIONERAS TERESIANA,-33.44055,-70.66986,MAS DE $100.000,MAS DE $100.000,COLEGIO SAN IGNACIO,-33.44706,-70.65616,MAS DE $100.000,MAS DE $100.000,2019-01-01
2018-01-01,2,8609,8754,1.0,COLEGIO HISPANO AMERICANO,-33.45574,-70.63982,MAS DE $100.000,MAS DE $100.000,COLEGIO SAN IGNACIO,-33.44706,-70.65616,MAS DE $100.000,MAS DE $100.000,2019-01-01
2018-01-01,3,8609,25249,1.0,COLEGIO PARTICULAR TANTAUCO  EL BOSQUE,-33.5567,-70.67139,$1.000 A $10.000,$50.001 A $100.000,COLEGIO SAN IGNACIO,-33.44706,-70.65616,MAS DE $100.000,MAS DE $100.000,2019-01-01
2018-01-01,4,8609,8748,1.0,COLEGIO INSTITUTO ALONSO DE ERCILLA,-33.43771,-70.66662,MAS DE $100.000,MAS DE $100.000,COLEGIO SAN IGNACIO,-33.44706,-70.65616,MAS DE $100.000,MAS DE $100.000,2019-01-01
2018-01-01,5,8609,25675,1.0,COLEGIO PART. CORAZON DE MARIA DE SAN MIGUEL,-33.49819,-70.65727,MAS DE $100.000,MAS DE $100.000,COLEGIO SAN IGNACIO,-33.44706,-70.65616,MAS DE $100.000,MAS DE $100.000,2019-01-01
2018-01-01,6,8609,8923,1.0,LYCÉE ANTOINE DE SAINT-EXUPÉRY,-33.3949,-70.58243,MAS DE $100.000,MAS DE $100.000,COLEGIO SAN IGNACIO,-33.44706,-70.65616,MAS DE $100.000,MAS DE $100.000,2019-01-01
2018-01-01,7,8609,26272,1.0,COLEGIO WESTON ACADEMY,-33.36366,-70.73019,MAS DE $100.000,MAS DE $100.000,COLEGIO SAN IGNACIO,-33.44706,-70.65616,MAS DE $100.000,MAS DE $100.000,2019-01-01
2018-01-01,8,8609,20502,1.0,"ESCUELA BÁSICA N°2484, COLEGIO PUMAHUE CHICAUMA",-33.304,-70.73806,MAS DE $100.000,MAS DE $100.000,COLEGIO SAN IGNACIO,-33.44706,-70.65616,MAS DE $100.000,MAS DE $100.000,2019-01-01
2018-01-01,9,8609,10635,1.0,INSTITUTO SAGRADO CORAZON,-33.5921,-70.70856,MAS DE $100.000,MAS DE $100.000,COLEGIO SAN IGNACIO,-33.44706,-70.65616,MAS DE $100.000,MAS DE $100.000,2019-01-01
2018-01-01,10,8609,25958,1.0,ESCUELA BASICA N°2047 MIRASOL DE SANTIAGO,-33.46333,-70.66482,$25.001 A $50.000,$50.001 A $100.000,COLEGIO SAN IGNACIO,-33.44706,-70.65616,MAS DE $100.000,MAS DE $100.000,2019-01-01
2018-01-01,11,8748,24670,1.0,COLEGIO INTERNACIONAL  ALBA,-33.48077,-70.74487,MAS DE $100.000,MAS DE $100.000,COLEGIO INSTITUTO ALONSO DE ERCILLA,-33.43771,-70.66662,MAS DE $100.000,MAS DE $100.000,2019-01-01
2018-01-01,12,8748,31040,1.0,COLEGIO SAN FERNANDO DE BUIN,-33.73415,-70.75959,MAS DE $100.000,MAS DE $100.000,COLEGIO INSTITUTO ALONSO DE ERCILLA,-33.43771,-70.66662,MAS DE $100.000,MAS DE $100.000,2019-01-01
2018-01-01,13,8748,8762,1.0,COLEGIO SANTA ELENA CARMELITAS MISIONERAS TERESIANA,-33.44055,-70.66986,MAS DE $100.000,MAS DE $100.000,COLEGIO INSTITUTO ALONSO DE ERCILLA,-33.43771,-70.66662,MAS DE $100.000,MAS DE $100.000,2019-01-01
2018-01-01,14,8748,8750,1.0,COLEGIO ACADEMIA DE HUMANIDADES,-33.42343,-70.645,MAS DE $100.000,MAS DE $100.000,COLEGIO INSTITUTO ALONSO DE ERCILLA,-33.43771,-70.66662,MAS DE $100.000,MAS DE $100.000,2019-01-01
2018-01-01,15,8748,31373,1.0,COLEGIO SAINT JOSEPH SCHOOL,-33.35254,-70.67854,MAS DE $100.000,MAS DE $100.000,COLEGIO INSTITUTO ALONSO DE ERCILLA,-33.43771,-70.66662,MAS DE $100.000,MAS DE $100.000,2019-01-01
2018-01-01,16,8748,26476,1.0,COLEGIO LINCOLN COLLEGE HUECHURABA,-33.35696,-70.67626,MAS DE $100.000,MAS DE $100.000,COLEGIO INSTITUTO ALONSO DE ERCILLA,-33.43771,-70.66662,MAS DE $100.000,MAS DE $100.000,2019-01-01
2018-01-01,17,8748,26046,2.0,COLEGIO  MANQUECURA CIUDAD DE LOS VALLES,-33.45062,-70.84866,MAS DE $100.000,MAS DE $100.000,COLEGIO INSTITUTO ALONSO DE ERCILLA,-33.43771,-70.66662,MAS DE $100.000,MAS DE $100.000,2019-01-01
2018-01-01,18,8748,8757,1.0,COLEGIO DE LOS SAGRADOS CORAZONES ALAMEDA,-33.44748,-70.66424,MAS DE $100.000,MAS DE $100.000,COLEGIO INSTITUTO ALONSO DE ERCILLA,-33.43771,-70.66662,MAS DE $100.000,MAS DE $100.000,2019-01-01
2018-01-01,19,8748,9004,2.0,COLEGIO UNIVERSITARIO INGLES,-33.42706,-70.62217,MAS DE $100.000,MAS DE $100.000,COLEGIO INSTITUTO ALONSO DE ERCILLA,-33.43771,-70.66662,MAS DE $100.000,MAS DE $100.000,2019-01-01
2018-01-01,20,8748,25202,2.0,COLEGIO  PUMAHUE HUECHURABA,-33.35736,-70.66317,MAS DE $100.000,MAS DE $100.000,COLEGIO INSTITUTO ALONSO DE ERCILLA,-33.43771,-70.66662,MAS DE $100.000,MAS DE $100.000,2019-01-01
2018-01-01,21,8748,8870,1.0,COLEGIO COMPANIA DE MARIA APOQUINDO,-33.40982,-70.56657,MAS DE $100.000,MAS DE $100.000,COLEGIO INSTITUTO ALONSO DE ERCILLA,-33.43771,-70.66662,MAS DE $100.000,MAS DE $100.000,2019-01-01
2018-01-01,22,8748,25143,1.0,COLEGIO SAN FRANCISCO JAVIER DE HUECHURABA,-33.35033,-70.68344,MAS DE $100.000,MAS DE $100.000,COLEGIO INSTITUTO ALONSO DE ERCILLA,-33.43771,-70.66662,MAS DE $100.000,MAS DE $100.000,2019-01-01
2018-01-01,23,8748,25675,1.0,COLEGIO PART. CORAZON DE MARIA DE SAN MIGUEL,-33.49819,-70.65727,MAS DE $100.000,MAS DE $100.000,COLEGIO INSTITUTO ALONSO DE ERCILLA,-33.43771,-70.66662,MAS DE $100.000,MAS DE $100.000,2019-01-01
2018-01-01,24,8750,26297,3.0,COLEGIO MONTAHUE,-33.35096,-70.67394,MAS DE $100.000,MAS DE $100.000,COLEGIO ACADEMIA DE HUMANIDADES,-33.42343,-70.645,MAS DE $100.000,MAS DE $100.000,2019-01-01
2018-01-01,25,8750,26272,1.0,COLEGIO WESTON ACADEMY,-33.36366,-70.73019,MAS DE $100.000,MAS DE $100.000,COLEGIO ACADEMIA DE HUMANIDADES,-33.42343,-70.645,MAS DE $100.000,MAS DE $100.000,2019-01-01
2018-01-01,26,8750,8769,6.0,COLEGIO SANTA MARIA CERVELLON,-33.41086,-70.65913,MAS DE $100.000,MAS DE $100.000,COLEGIO ACADEMIA DE HUMANIDADES,-33.42343,-70.645,MAS DE $100.000,MAS DE $100.000,2019-01-01
2018-01-01,27,8750,24795,1.0,COLEGIO EMAUS,-33.39934,-70.55994,MAS DE $100.000,MAS DE $100.000,COLEGIO ACADEMIA DE HUMANIDADES,-33.42343,-70.645,MAS DE $100.000,MAS DE $100.000,2019-01-01
2018-01-01,28,8750,25348,1.0,COLEGIO  SAN JOSE DE CHICUREO,-33.278,-70.63866,MAS DE $100.000,MAS DE $100.000,COLEGIO ACADEMIA DE HUMANIDADES,-33.42343,-70.645,MAS DE $100.000,MAS DE $100.000,2019-01-01
2018-01-01,29,8750,26476,5.0,COLEGIO LINCOLN COLLEGE HUECHURABA,-33.35696,-70.67626,MAS DE $100.000,MAS DE $100.000,COLEGIO ACADEMIA DE HUMANIDADES,-33.42343,-70.645,MAS DE $100.000,MAS DE $100.000,2019-01-01
2018-01-01,30,8750,24988,1.0,COLEGIO ALMENAR DEL MAIPO,-33.59628,-70.51526,MAS DE $100.000,MAS DE $100.000,COLEGIO ACADEMIA DE HUMANIDADES,-33.42343,-70.645,MAS DE $100.000,MAS DE $100.000,2019-01-01
2018-01-01,31,8750,25487,1.0,COLEGIO  MANQUECURA VALLE LO CAMPINO,-33.38755,-70.72424,MAS DE $100.000,MAS DE $100.000,COLEGIO ACADEMIA DE HUMANIDADES,-33.42343,-70.645,MAS DE $100.000,MAS DE $100.000,2019-01-01
2018-01-01,32,8750,31040,1.0,COLEGIO SAN FERNANDO DE BUIN,-33.73415,-70.75959,MAS DE $100.000,MAS DE $100.000,COLEGIO ACADEMIA DE HUMANIDADES,-33.42343,-70.645,MAS DE $100.000,MAS DE $100.000,2019-01-01
2018-01-01,33,8750,20519,2.0,COLEGIO CIENTIFICO HUMANISTA ALVARO COVARRUBIAS,-33.40364,-70.65967,SIN INFORMACION,SIN INFORMACION,COLEGIO ACADEMIA DE HUMANIDADES,-33.42343,-70.645,MAS DE $100.000,MAS DE $100.000,2019-01-01
2018-01-01,34,8750,31373,1.0,COLEGIO SAINT JOSEPH SCHOOL,-33.35254,-70.67854,MAS DE $100.000,MAS DE $100.000,COLEGIO ACADEMIA DE HUMANIDADES,-33.42343,-70.645,MAS DE $100.000,MAS DE $100.000,2019-01-01
2018-01-01,35,8750,8959,1.0,COLEGIO SUPERIOR CAMBRIDGE,-33.44031,-70.63028,MAS DE $100.000,MAS DE $100.000,COLEGIO ACADEMIA DE HUMANIDADES,-33.42343,-70.645,MAS DE $100.000,MAS DE $100.000,2019-01-01
2018-01-01,36,8750,8921,1.0,COLEGIO BRITISH HIGH,-33.38921,-70.53135,MAS DE $100.000,MAS DE $100.000,COLEGIO ACADEMIA DE HUMANIDADES,-33.42343,-70.645,MAS DE $100.000,MAS DE $100.000,2019-01-01
2018-01-01,37,8754,9221,2.0,COLEGIO ALTAMIRA,-33.4792,-70.53828,MAS DE $100.000,MAS DE $100.000,COLEGIO HISPANO AMERICANO,-33.45574,-70.63982,MAS DE $100.000,MAS DE $100.000,2019-01-01
2018-01-01,38,8754,24625,1.0,COLEGIO SAN CRISTOBAL COLLEGE,-33.49538,-70.65242,$50.001 A $100.000,MAS DE $100.000,COLEGIO HISPANO AMERICANO,-33.45574,-70.63982,MAS DE $100.000,MAS DE $100.000,2019-01-01
2018-01-01,39,8754,9267,2.0,LICEO EXPERIMENTAL MANUEL DE SALAS,-33.45419,-70.5917,MAS DE $100.000,MAS DE $100.000,COLEGIO HISPANO AMERICANO,-33.45574,-70.63982,MAS DE $100.000,MAS DE $100.000,2019-01-01
2018-01-01,40,8754,10834,1.0,COLEGIO MARAMBIO,-33.68616,-71.22143,MAS DE $100.000,MAS DE $100.000,COLEGIO HISPANO AMERICANO,-33.45574,-70.63982,MAS DE $100.000,MAS DE $100.000,2019-01-01
2018-01-01,41,8754,11962,1.0,COLEGIO  PEDRO DE VALDIVIA-AGUSTINAS,-33.44203,-70.66454,MAS DE $100.000,MAS DE $100.000,COLEGIO HISPANO AMERICANO,-33.45574,-70.63982,MAS DE $100.000,MAS DE $100.000,2019-01-01
2018-01-01,42,8754,8755,1.0,COLEGIO SAINT ROSE SCHOOL,-33.45658,-70.63635,MAS DE $100.000,MAS DE $100.000,COLEGIO HISPANO AMERICANO,-33.45574,-70.63982,MAS DE $100.000,MAS DE $100.000,2019-01-01
2018-01-01,43,8754,8846,1.0,COLEGIO INMACULADA CONCEPCION,-33.40279,-70.59391,$50.001 A $100.000,MAS DE $100.000,COLEGIO HISPANO AMERICANO,-33.45574,-70.63982,MAS DE $100.000,MAS DE $100.000,2019-01-01
2018-01-01,44,8754,12133,1.0,COLEGIO FRANCISCO ENCINA,-33.46386,-70.60037,MAS DE $100.000,MAS DE $100.000,COLEGIO HISPANO AMERICANO,-33.45574,-70.63982,MAS DE $100.000,MAS DE $100.000,2019-01-01
2018-01-01,45,8754,8959,2.0,COLEGIO SUPERIOR CAMBRIDGE,-33.44031,-70.63028,MAS DE $100.000,MAS DE $100.000,COLEGIO HISPANO AMERICANO,-33.45574,-70.63982,MAS DE $100.000,MAS DE $100.000,2019-01-01
2018-01-01,46,8754,8748,1.0,COLEGIO INSTITUTO ALONSO DE ERCILLA,-33.43771,-70.66662,MAS DE $100.000,MAS DE $100.000,COLEGIO HISPANO AMERICANO,-33.45574,-70.63982,MAS DE $100.000,MAS DE $100.000,2019-01-01
2018-01-01,47,8754,9268,1.0,ESCUELA BÁSICA Nº520 FLORENCE NIGHTINGALE,-33.47751,-70.59914,MAS DE $100.000,MAS DE $100.000,COLEGIO HISPANO AMERICANO,-33.45574,-70.63982,MAS DE $100.000,MAS DE $100.000,2019-01-01
2018-01-01,48,8754,25675,1.0,COLEGIO PART. CORAZON DE MARIA DE SAN MIGUEL,-33.49819,-70.65727,MAS DE $100.000,MAS DE $100.000,COLEGIO HISPANO AMERICANO,-33.45574,-70.63982,MAS DE $100.000,MAS DE $100.000,2019-01-01
2018-01-01,49,8754,10719,1.0,INSTITUTO TALAGANTE,-33.70064,-70.93318,MAS DE $100.000,MAS DE $100.000,COLEGIO HISPANO AMERICANO,-33.45574,-70.63982,MAS DE $100.000,MAS DE $100.000,2019-01-01
2018-01-01,50,8754,25958,6.0,ESCUELA BASICA N°2047 MIRASOL DE SANTIAGO,-33.46333,-70.66482,$25.001 A $50.000,$50.001 A $100.000,COLEGIO HISPANO AMERICANO,-33.45574,-70.63982,MAS DE $100.000,MAS DE $100.000,2019-01-01
2018-01-01,51,8754,8762,1.0,COLEGIO SANTA ELENA CARMELITAS MISIONERAS TERESIANA,-33.44055,-70.66986,MAS DE $100.000,MAS DE $100.000,COLEGIO HISPANO AMERICANO,-33.45574,-70.63982,MAS DE $100.000,MAS DE $100.000,2019-01-01
2018-01-01,52,8755,9855,1.0,COLEGIO PRINCESS ANNE SCHOOL,-33.52099,-70.66013,MAS DE $100.000,MAS DE $100.000,COLEGIO SAINT ROSE SCHOOL,-33.45658,-70.63635,MAS DE $100.000,MAS DE $100.000,2019-01-01
2018-01-01,53,8755,9276,1.0,COLEGIO UNIVERSITARIO EL SALVADOR,-33.44836,-70.62163,MAS DE $100.000,MAS DE $100.000,COLEGIO SAINT ROSE SCHOOL,-33.45658,-70.63635,MAS DE $100.000,MAS DE $100.000,2019-01-01
2018-01-01,54,8755,31265,1.0,ESCUELA BASICA N°2392 JOHN JOHN HIGH SCHOOL,-33.44712,-70.61362,MAS DE $100.000,MAS DE $100.000,COLEGIO SAINT ROSE SCHOOL,-33.45658,-70.63635,MAS DE $100.000,MAS DE $100.000,2019-01-01
2018-01-01,55,8755,9054,1.0,COLEGIO SAINT JOHN´S VILLA ACADEMY,-33.43306,-70.55448,MAS DE $100.000,MAS DE $100.000,COLEGIO SAINT ROSE SCHOOL,-33.45658,-70.63635,MAS DE $100.000,MAS DE $100.000,2019-01-01
2018-01-01,56,8755,25001,2.0,COLEGIO GREENLAND SCHOOL,-33.45762,-70.72278,MAS DE $100.000,MAS DE $100.000,COLEGIO SAINT ROSE SCHOOL,-33.45658,-70.63635,MAS DE $100.000,MAS DE $100.000,2019-01-01
2018-01-01,57,8755,8762,1.0,COLEGIO SANTA ELENA CARMELITAS MISIONERAS TERESIANA,-33.44055,-70.66986,MAS DE $100.000,MAS DE $100.000,COLEGIO SAINT ROSE SCHOOL,-33.45658,-70.63635,MAS DE $100.000,MAS DE $100.000,2019-01-01
2018-01-01,58,8755,8950,1.0,COLEGIO COMPANIA DE MARIA-SEMINARIO,-33.43723,-70.63094,MAS DE $100.000,MAS DE $100.000,COLEGIO SAINT ROSE SCHOOL,-33.45658,-70.63635,MAS DE $100.000,MAS DE $100.000,2019-01-01
2018-01-01,59,8755,8748,1.0,COLEGIO INSTITUTO ALONSO DE ERCILLA,-33.43771,-70.66662,MAS DE $100.000,MAS DE $100.000,COLEGIO SAINT ROSE SCHOOL,-33.45658,-70.63635,MAS DE $100.000,MAS DE $100.000,2019-01-01
2018-01-01,60,8755,12133,1.0,COLEGIO FRANCISCO ENCINA,-33.46386,-70.60037,MAS DE $100.000,MAS DE $100.000,COLEGIO SAINT ROSE SCHOOL,-33.45658,-70.63635,MAS DE $100.000,MAS DE $100.000,2019-01-01
2018-01-01,61,8755,8754,1.0,COLEGIO HISPANO AMERICANO,-33.45574,-70.63982,MAS DE $100.000,MAS DE $100.000,COLEGIO SAINT ROSE SCHOOL,-33.45658,-70.63635,MAS DE $100.000,MAS DE $100.000,2019-01-01
2018-01-01,62,8755,8759,1.0,COLEGIO SANTA CECILIA,-33.4408,-70.66682,MAS DE $100.000,MAS DE $100.000,COLEGIO SAINT ROSE SCHOOL,-33.45658,-70.63635,MAS DE $100.000,MAS DE $100.000,2019-01-01
2018-01-01,63,8755,25958,21.0,ESCUELA BASICA N°2047 MIRASOL DE SANTIAGO,-33.46333,-70.66482,$25.001 A $50.000,$50.001 A $100.000,COLEGIO SAINT ROSE SCHOOL,-33.45658,-70.63635,MAS DE $100.000,MAS DE $100.000,2019-01-01
2018-01-01,64,8755,25048,1.0,COLEGIO CASTELGANDOLFO,-33.56283,-70.79078,GRATUITO,MAS DE $100.000,COLEGIO SAINT ROSE SCHOOL,-33.45658,-70.63635,MAS DE $100.000,MAS DE $100.000,2019-01-01
2018-01-01,65,8757,9004,2.0,COLEGIO UNIVERSITARIO INGLES,-33.42706,-70.62217,MAS DE $100.000,MAS DE $100.000,COLEGIO DE LOS SAGRADOS CORAZONES ALAMEDA,-33.44748,-70.66424,MAS DE $100.000,MAS DE $100.000,2019-01-01
2018-01-01,66,8757,31387,2.0,COLEGIO BOSTON COLLEGE ALTO MACUL,-33.51288,-70.53438,MAS DE $100.000,MAS DE $100.000,COLEGIO DE LOS SAGRADOS CORAZONES ALAMEDA,-33.44748,-70.66424,MAS DE $100.000,MAS DE $100.000,2019-01-01
2018-01-01,67,8757,9230,1.0,COLEGIO ISABEL LA CATOLICA,-33.44771,-70.60389,MAS DE $100.000,MAS DE $100.000,COLEGIO DE LOS SAGRADOS CORAZONES ALAMEDA,-33.44748,-70.66424,MAS DE $100.000,MAS DE $100.000,2019-01-01
2018-01-01,68,8757,31040,1.0,COLEGIO SAN FERNANDO DE BUIN,-33.73415,-70.75959,MAS DE $100.000,MAS DE $100.000,COLEGIO DE LOS SAGRADOS CORAZONES ALAMEDA,-33.44748,-70.66424,MAS DE $100.000,MAS DE $100.000,2019-01-01
2018-01-01,69,8757,8609,1.0,COLEGIO SAN IGNACIO,-33.44706,-70.65616,MAS DE $100.000,MAS DE $100.000,COLEGIO DE LOS SAGRADOS CORAZONES ALAMEDA,-33.44748,-70.66424,MAS DE $100.000,MAS DE $100.000,2019-01-01
2018-01-01,70,8757,26046,1.0,COLEGIO  MANQUECURA CIUDAD DE LOS VALLES,-33.45062,-70.84866,MAS DE $100.000,MAS DE $100.000,COLEGIO DE LOS SAGRADOS CORAZONES ALAMEDA,-33.44748,-70.66424,MAS DE $100.000,MAS DE $100.000,2019-01-01
2018-01-01,71,8757,25001,2.0,COLEGIO GREENLAND SCHOOL,-33.45762,-70.72278,MAS DE $100.000,MAS DE $100.000,COLEGIO DE LOS SAGRADOS CORAZONES ALAMEDA,-33.44748,-70.66424,MAS DE $100.000,MAS DE $100.000,2019-01-01
2018-01-01,72,8757,9003,1.0,COLEGIO THE ENGLISH INSTITUTE,-33.44017,-70.60291,MAS DE $100.000,MAS DE $100.000,COLEGIO DE LOS SAGRADOS CORAZONES ALAMEDA,-33.44748,-70.66424,MAS DE $100.000,MAS DE $100.000,2019-01-01
2018-01-01,73,8757,24908,1.0,COLEGIO PEDRO DE VALDIVIA LAS CONDES,-33.37046,-70.5082,MAS DE $100.000,MAS DE $100.000,COLEGIO DE LOS SAGRADOS CORAZONES ALAMEDA,-33.44748,-70.66424,MAS DE $100.000,MAS DE $100.000,2019-01-01
2018-01-01,74,8759,25001,2.0,COLEGIO GREENLAND SCHOOL,-33.45762,-70.72278,MAS DE $100.000,MAS DE $100.000,COLEGIO SANTA CECILIA,-33.4408,-70.66682,MAS DE $100.000,MAS DE $100.000,2019-01-01
2018-01-01,75,8759,11962,1.0,COLEGIO  PEDRO DE VALDIVIA-AGUSTINAS,-33.44203,-70.66454,MAS DE $100.000,MAS DE $100.000,COLEGIO SANTA CECILIA,-33.4408,-70.66682,MAS DE $100.000,MAS DE $100.000,2019-01-01
2018-01-01,76,8759,9270,1.0,COLEGIO VICTOR DOMINGO SILVA,-33.44535,-70.5723,MAS DE $100.000,MAS DE $100.000,COLEGIO SANTA CECILIA,-33.4408,-70.66682,MAS DE $100.000,MAS DE $100.000,2019-01-01
2018-01-01,77,8759,20445,1.0,"ESCUELA BÁSICA N°2477, COLEGIO WESTON ACADEMY EN VALLE GRANDE",-33.32978,-70.76225,MAS DE $100.000,MAS DE $100.000,COLEGIO SANTA CECILIA,-33.4408,-70.66682,MAS DE $100.000,MAS DE $100.000,2019-01-01
2018-01-01,78,8759,9259,1.0,COLEGIO MANQUECURA ÑUÑOA,-33.45306,-70.57552,$50.001 A $100.000,MAS DE $100.000,COLEGIO SANTA CECILIA,-33.4408,-70.66682,MAS DE $100.000,MAS DE $100.000,2019-01-01
2018-01-01,79,8759,31040,1.0,COLEGIO SAN FERNANDO DE BUIN,-33.73415,-70.75959,MAS DE $100.000,MAS DE $100.000,COLEGIO SANTA CECILIA,-33.4408,-70.66682,MAS DE $100.000,MAS DE $100.000,2019-01-01
2018-01-01,80,8759,24801,1.0,COLEGIO HENRY FAYOL,-33.4506,-70.59295,MAS DE $100.000,MAS DE $100.000,COLEGIO SANTA CECILIA,-33.4408,-70.66682,MAS DE $100.000,MAS DE $100.000,2019-01-01
2018-01-01,81,8759,25202,1.0,COLEGIO  PUMAHUE HUECHURABA,-33.35736,-70.66317,MAS DE $100.000,MAS DE $100.000,COLEGIO SANTA CECILIA,-33.4408,-70.66682,MAS DE $100.000,MAS DE $100.000,2019-01-01
2018-01-01,82,8761,8984,1.0,COLEGIO TREWHELA´S ENGLISH SCHOOL,-33.42258,-70.59742,MAS DE $100.000,MAS DE $100.000,COLEGIO INSTITUTO DE HUMANIDADES LUIS CAMPINO,-33.42616,-70.6112,MAS DE $100.000,MAS DE $100.000,2019-01-01
2018-01-01,83,8761,8992,1.0,COLEGIO ALEMAN SANKT THOMAS MORUS,-33.42637,-70.61112,MAS DE $100.000,MAS DE $100.000,COLEGIO INSTITUTO DE HUMANIDADES LUIS CAMPINO,-33.42616,-70.6112,MAS DE $100.000,MAS DE $100.000,2019-01-01
2018-01-01,84,8761,9230,1.0,COLEGIO ISABEL LA CATOLICA,-33.44771,-70.60389,MAS DE $100.000,MAS DE $100.000,COLEGIO INSTITUTO DE HUMANIDADES LUIS CAMPINO,-33.42616,-70.6112,MAS DE $100.000,MAS DE $100.000,2019-01-01
2018-01-01,85,8761,25310,1.0,COLEGIO SAN NICOLÁS DIÁCONO,-33.27973,-70.7032,MAS DE $100.000,MAS DE $100.000,COLEGIO INSTITUTO DE HUMANIDADES LUIS CAMPINO,-33.42616,-70.6112,MAS DE $100.000,MAS DE $100.000,2019-01-01
2018-01-01,86,8762,8748,1.0,COLEGIO INSTITUTO ALONSO DE ERCILLA,-33.43771,-70.66662,MAS DE $100.000,MAS DE $100.000,COLEGIO SANTA ELENA CARMELITAS MISIONERAS TERESIANA,-33.44055,-70.66986,MAS DE $100.000,MAS DE $100.000,2019-01-01
2018-01-01,87,8762,25852,1.0,COLEGIO DIVINA PASTORA NUNOA,-33.45912,-70.60557,MAS DE $100.000,MAS DE $100.000,COLEGIO SANTA ELENA CARMELITAS MISIONERAS TERESIANA,-33.44055,-70.66986,MAS DE $100.000,MAS DE $100.000,2019-01-01
2018-01-01,88,8762,24986,1.0,COLEGIO CENTENARIO,-33.49993,-70.76097,MAS DE $100.000,MAS DE $100.000,COLEGIO SANTA ELENA CARMELITAS MISIONERAS TERESIANA,-33.44055,-70.66986,MAS DE $100.000,MAS DE $100.000,2019-01-01
2018-01-01,89,8762,25958,3.0,ESCUELA BASICA N°2047 MIRASOL DE SANTIAGO,-33.46333,-70.66482,$25.001 A $50.000,$50.001 A $100.000,COLEGIO SANTA ELENA CARMELITAS MISIONERAS TERESIANA,-33.44055,-70.66986,MAS DE $100.000,MAS DE $100.000,2019-01-01
2018-01-01,90,8762,25675,1.0,COLEGIO PART. CORAZON DE MARIA DE SAN MIGUEL,-33.49819,-70.65727,MAS DE $100.000,MAS DE $100.000,COLEGIO SANTA ELENA CARMELITAS MISIONERAS TERESIANA,-33.44055,-70.66986,MAS DE $100.000,MAS DE $100.000,2019-01-01
2018-01-01,91,8762,9941,1.0,COLEGIO PARTICULAR DE ASIS,-33.51102,-70.76752,GRATUITO,$50.001 A $100.000,COLEGIO SANTA ELENA CARMELITAS MISIONERAS TERESIANA,-33.44055,-70.66986,MAS DE $100.000,MAS DE $100.000,2019-01-01
2018-01-01,92,8762,11962,1.0,COLEGIO  PEDRO DE VALDIVIA-AGUSTINAS,-33.44203,-70.66454,MAS DE $100.000,MAS DE $100.000,COLEGIO SANTA ELENA CARMELITAS MISIONERAS TERESIANA,-33.44055,-70.66986,MAS DE $100.000,MAS DE $100.000,2019-01-01
2018-01-01,93,8762,8759,1.0,COLEGIO SANTA CECILIA,-33.4408,-70.66682,MAS DE $100.000,MAS DE $100.000,COLEGIO SANTA ELENA CARMELITAS MISIONERAS TERESIANA,-33.44055,-70.66986,MAS DE $100.000,MAS DE $100.000,2019-01-01
2018-01-01,94,8769,8759,1.0,COLEGIO SANTA CECILIA,-33.4408,-70.66682,MAS DE $100.000,MAS DE $100.000,COLEGIO SANTA MARIA CERVELLON,-33.41086,-70.65913,MAS DE $100.000,MAS DE $100.000,2019-01-01
2018-01-01,95,8769,25492,2.0,ESCUELA BASICA PARTICULAR TRUPAN,-33.37558,-70.67664,GRATUITO,$25.001 A $50.000,COLEGIO SANTA MARIA CERVELLON,-33.41086,-70.65913,MAS DE $100.000,MAS DE $100.000,2019-01-01
2018-01-01,96,8769,25202,2.0,COLEGIO  PUMAHUE HUECHURABA,-33.35736,-70.66317,MAS DE $100.000,MAS DE $100.000,COLEGIO SANTA MARIA CERVELLON,-33.41086,-70.65913,MAS DE $100.000,MAS DE $100.000,2019-01-01
2018-01-01,97,8846,8870,3.0,COLEGIO COMPANIA DE MARIA APOQUINDO,-33.40982,-70.56657,MAS DE $100.000,MAS DE $100.000,COLEGIO INMACULADA CONCEPCION,-33.40279,-70.59391,$50.001 A $100.000,MAS DE $100.000,2019-01-01
2018-01-01,98,8846,24795,2.0,COLEGIO EMAUS,-33.39934,-70.55994,MAS DE $100.000,MAS DE $100.000,COLEGIO INMACULADA CONCEPCION,-33.40279,-70.59391,$50.001 A $100.000,MAS DE $100.000,2019-01-01
2018-01-01,99,8846,25172,2.0,COLEGIO PUMAHUE,-33.49787,-70.54718,MAS DE $100.000,MAS DE $100.000,COLEGIO INMACULADA CONCEPCION,-33.40279,-70.59391,$50.001 A $100.000,MAS DE $100.000,2019-01-01
2018-01-01,100,8846,25487,3.0,COLEGIO  MANQUECURA VALLE LO CAMPINO,-33.38755,-70.72424,MAS DE $100.000,MAS DE $100.000,COLEGIO INMACULADA CONCEPCION,-33.40279,-70.59391,$50.001 A $100.000,MAS DE $100.000,2019-01-01
2018-01-01,101,8846,8909,4.0,COLEGIO BRADFORD SCHOOL,-33.38399,-70.57339,MAS DE $100.000,MAS DE $100.000,COLEGIO INMACULADA CONCEPCION,-33.40279,-70.59391,$50.001 A $100.000,MAS DE $100.000,2019-01-01
2018-01-01,102,8846,8905,1.0,COLEGIO EL CARMEN TERESIANO I,-33.38005,-70.57058,MAS DE $100.000,MAS DE $100.000,COLEGIO INMACULADA CONCEPCION,-33.40279,-70.59391,$50.001 A $100.000,MAS DE $100.000,2019-01-01
2018-01-01,103,8846,9004,1.0,COLEGIO UNIVERSITARIO INGLES,-33.42706,-70.62217,MAS DE $100.000,MAS DE $100.000,COLEGIO INMACULADA CONCEPCION,-33.40279,-70.59391,$50.001 A $100.000,MAS DE $100.000,2019-01-01
2018-01-01,104,8846,26335,3.0,COLEGIO DUNALASTAIR VALLE NORTE,-33.21198,-70.66491,MAS DE $100.000,MAS DE $100.000,COLEGIO INMACULADA CONCEPCION,-33.40279,-70.59391,$50.001 A $100.000,MAS DE $100.000,2019-01-01
2018-01-01,105,8846,8923,1.0,LYCÉE ANTOINE DE SAINT-EXUPÉRY,-33.3949,-70.58243,MAS DE $100.000,MAS DE $100.000,COLEGIO INMACULADA CONCEPCION,-33.40279,-70.59391,$50.001 A $100.000,MAS DE $100.000,2019-01-01
2018-01-01,106,8846,8878,1.0,COLEGIO DEL SAGRADO CORAZON DE APOQUINDO,-33.41013,-70.54981,MAS DE $100.000,MAS DE $100.000,COLEGIO INMACULADA CONCEPCION,-33.40279,-70.59391,$50.001 A $100.000,MAS DE $100.000,2019-01-01
2018-01-01,107,8846,8921,4.0,COLEGIO BRITISH HIGH,-33.38921,-70.53135,MAS DE $100.000,MAS DE $100.000,COLEGIO INMACULADA CONCEPCION,-33.40279,-70.59391,$50.001 A $100.000,MAS DE $100.000,2019-01-01
2018-01-01,108,8846,8917,4.0,COLEGIO CRAIGHOUSE,-33.3539,-70.52275,MAS DE $100.000,MAS DE $100.000,COLEGIO INMACULADA CONCEPCION,-33.40279,-70.59391,$50.001 A $100.000,MAS DE $100.000,2019-01-01
2018-01-01,109,8846,25825,1.0,COLEGIO SAN MIGUEL ARCANGEL DE LAS CONDES,-33.38874,-70.53289,MAS DE $100.000,MAS DE $100.000,COLEGIO INMACULADA CONCEPCION,-33.40279,-70.59391,$50.001 A $100.000,MAS DE $100.000,2019-01-01
2018-01-01,110,8846,8877,1.0,COLEGIO DE LOS SAGRADOS CORAZONES,-33.37868,-70.55175,MAS DE $100.000,MAS DE $100.000,COLEGIO INMACULADA CONCEPCION,-33.40279,-70.59391,$50.001 A $100.000,MAS DE $100.000,2019-01-01
2018-01-01,111,8846,31387,1.0,COLEGIO BOSTON COLLEGE ALTO MACUL,-33.51288,-70.53438,MAS DE $100.000,MAS DE $100.000,COLEGIO INMACULADA CONCEPCION,-33.40279,-70.59391,$50.001 A $100.000,MAS DE $100.000,2019-01-01
2018-01-01,112,8846,24761,1.0,SAN JUAN DE LAS CONDES,-33.42982,-70.58354,MAS DE $100.000,MAS DE $100.000,COLEGIO INMACULADA CONCEPCION,-33.40279,-70.59391,$50.001 A $100.000,MAS DE $100.000,2019-01-01
2018-01-01,113,8846,31373,2.0,COLEGIO SAINT JOSEPH SCHOOL,-33.35254,-70.67854,MAS DE $100.000,MAS DE $100.000,COLEGIO INMACULADA CONCEPCION,-33.40279,-70.59391,$50.001 A $100.000,MAS DE $100.000,2019-01-01
2018-01-01,114,8846,9003,1.0,COLEGIO THE ENGLISH INSTITUTE,-33.44017,-70.60291,MAS DE $100.000,MAS DE $100.000,COLEGIO INMACULADA CONCEPCION,-33.40279,-70.59391,$50.001 A $100.000,MAS DE $100.000,2019-01-01
2018-01-01,115,8846,12094,6.0,COLEGIO SAN ESTEBAN DIÁCONO,-33.38227,-70.55391,MAS DE $100.000,MAS DE $100.000,COLEGIO INMACULADA CONCEPCION,-33.40279,-70.59391,$50.001 A $100.000,MAS DE $100.000,2019-01-01
2018-01-01,116,8846,31040,2.0,COLEGIO SAN FERNANDO DE BUIN,-33.73415,-70.75959,MAS DE $100.000,MAS DE $100.000,COLEGIO INMACULADA CONCEPCION,-33.40279,-70.59391,$50.001 A $100.000,MAS DE $100.000,2019-01-01
2018-01-01,117,8846,24884,1.0,COLEGIO ALCAZAR DE LAS CONDES,-33.40622,-70.58062,MAS DE $100.000,MAS DE $100.000,COLEGIO INMACULADA CONCEPCION,-33.40279,-70.59391,$50.001 A $100.000,MAS DE $100.000,2019-01-01
2018-01-01,118,8846,26476,2.0,COLEGIO LINCOLN COLLEGE HUECHURABA,-33.35696,-70.67626,MAS DE $100.000,MAS DE $100.000,COLEGIO INMACULADA CONCEPCION,-33.40279,-70.59391,$50.001 A $100.000,MAS DE $100.000,2019-01-01
2018-01-01,119,8846,10611,1.0,COLEGIO AMERICAN ACADEMY,-33.60268,-70.69942,GRATUITO,$50.001 A $100.000,COLEGIO INMACULADA CONCEPCION,-33.40279,-70.59391,$50.001 A $100.000,MAS DE $100.000,2019-01-01
2018-01-01,120,8846,25202,1.0,COLEGIO  PUMAHUE HUECHURABA,-33.35736,-70.66317,MAS DE $100.000,MAS DE $100.000,COLEGIO INMACULADA CONCEPCION,-33.40279,-70.59391,$50.001 A $100.000,MAS DE $100.000,2019-01-01
2018-01-01,121,8846,24908,1.0,COLEGIO PEDRO DE VALDIVIA LAS CONDES,-33.37046,-70.5082,MAS DE $100.000,MAS DE $100.000,COLEGIO INMACULADA CONCEPCION,-33.40279,-70.59391,$50.001 A $100.000,MAS DE $100.000,2019-01-01
2018-01-01,122,8846,9246,1.0,COLEGIO SAN AGUSTIN,-33.45922,-70.57815,MAS DE $100.000,MAS DE $100.000,COLEGIO INMACULADA CONCEPCION,-33.40279,-70.59391,$50.001 A $100.000,MAS DE $100.000,2019-01-01
2018-01-01,123,8846,8888,1.0,COLEGIO DEL VERBO DIVINO,-33.42012,-70.58665,MAS DE $100.000,MAS DE $100.000,COLEGIO INMACULADA CONCEPCION,-33.40279,-70.59391,$50.001 A $100.000,MAS DE $100.000,2019-01-01
2018-01-01,124,8846,8995,1.0,COLEGIO SANTIAGO COLLEGE,-33.33954,-70.5445,MAS DE $100.000,MAS DE $100.000,COLEGIO INMACULADA CONCEPCION,-33.40279,-70.59391,$50.001 A $100.000,MAS DE $100.000,2019-01-01
2018-01-01,125,8846,8972,1.0,COLEGIO SAN BENITO,-33.37164,-70.58101,MAS DE $100.000,MAS DE $100.000,COLEGIO INMACULADA CONCEPCION,-33.40279,-70.59391,$50.001 A $100.000,MAS DE $100.000,2019-01-01
2018-01-01,126,8846,8900,2.0,COLEGIO SEMINARIO PONTIFICIO MENOR,-33.40689,-70.55469,MAS DE $100.000,MAS DE $100.000,COLEGIO INMACULADA CONCEPCION,-33.40279,-70.59391,$50.001 A $100.000,MAS DE $100.000,2019-01-01
2018-01-01,127,8846,25310,1.0,COLEGIO SAN NICOLÁS DIÁCONO,-33.27973,-70.7032,MAS DE $100.000,MAS DE $100.000,COLEGIO INMACULADA CONCEPCION,-33.40279,-70.59391,$50.001 A $100.000,MAS DE $100.000,2019-01-01
2018-01-01,128,8846,24832,1.0,INSTITUTO DOCENCIA,-33.41769,-70.58126,MAS DE $100.000,MAS DE $100.000,COLEGIO INMACULADA CONCEPCION,-33.40279,-70.59391,$50.001 A $100.000,MAS DE $100.000,2019-01-01
2018-01-01,129,8846,25142,3.0,COLEGIO ANDINO ANTILLANCA,-33.42558,-70.57013,MAS DE $100.000,MAS DE $100.000,COLEGIO INMACULADA CONCEPCION,-33.40279,-70.59391,$50.001 A $100.000,MAS DE $100.000,2019-01-01
2018-01-01,130,8846,9259,2.0,COLEGIO MANQUECURA ÑUÑOA,-33.45306,-70.57552,$50.001 A $100.000,MAS DE $100.000,COLEGIO INMACULADA CONCEPCION,-33.40279,-70.59391,$50.001 A $100.000,MAS DE $100.000,2019-01-01
2018-01-01,131,8846,25675,2.0,COLEGIO PART. CORAZON DE MARIA DE SAN MIGUEL,-33.49819,-70.65727,MAS DE $100.000,MAS DE $100.000,COLEGIO INMACULADA CONCEPCION,-33.40279,-70.59391,$50.001 A $100.000,MAS DE $100.000,2019-01-01
2018-01-01,132,8860,8895,1.0,COLEGIO DALCAHUE,-33.42521,-70.58745,MAS DE $100.000,MAS DE $100.000,COLEGIO ANGLO AMERICAN INTERNATIONAL SCHOOL,-33.35578,-70.48153,MAS DE $100.000,MAS DE $100.000,2019-01-01
2018-01-01,133,8860,25669,3.0,COLEGIO HIGHLANDS,-33.21859,-70.66314,MAS DE $100.000,MAS DE $100.000,COLEGIO ANGLO AMERICAN INTERNATIONAL SCHOOL,-33.35578,-70.48153,MAS DE $100.000,MAS DE $100.000,2019-01-01
2018-01-01,134,8860,25224,1.0,COLEGIO BERTAIT COLLEGE,-33.36661,-70.51716,MAS DE $100.000,MAS DE $100.000,COLEGIO ANGLO AMERICAN INTERNATIONAL SCHOOL,-33.35578,-70.48153,MAS DE $100.000,MAS DE $100.000,2019-01-01
2018-01-01,135,8860,24842,1.0,COLEGIO LA FONTAINE,-33.45359,-70.58,MAS DE $100.000,MAS DE $100.000,COLEGIO ANGLO AMERICAN INTERNATIONAL SCHOOL,-33.35578,-70.48153,MAS DE $100.000,MAS DE $100.000,2019-01-01
2018-01-01,136,8860,8972,1.0,COLEGIO SAN BENITO,-33.37164,-70.58101,MAS DE $100.000,MAS DE $100.000,COLEGIO ANGLO AMERICAN INTERNATIONAL SCHOOL,-33.35578,-70.48153,MAS DE $100.000,MAS DE $100.000,2019-01-01
2018-01-01,137,8860,8921,1.0,COLEGIO BRITISH HIGH,-33.38921,-70.53135,MAS DE $100.000,MAS DE $100.000,COLEGIO ANGLO AMERICAN INTERNATIONAL SCHOOL,-33.35578,-70.48153,MAS DE $100.000,MAS DE $100.000,2019-01-01
2018-01-01,138,8860,8894,1.0,COLEGIO LA MAISONNETTE,-33.38114,-70.57115,MAS DE $100.000,MAS DE $100.000,COLEGIO ANGLO AMERICAN INTERNATIONAL SCHOOL,-33.35578,-70.48153,MAS DE $100.000,MAS DE $100.000,2019-01-01
2018-01-01,139,8860,24884,1.0,COLEGIO ALCAZAR DE LAS CONDES,-33.40622,-70.58062,MAS DE $100.000,MAS DE $100.000,COLEGIO ANGLO AMERICAN INTERNATIONAL SCHOOL,-33.35578,-70.48153,MAS DE $100.000,MAS DE $100.000,2019-01-01
2018-01-01,140,8860,26335,1.0,COLEGIO DUNALASTAIR VALLE NORTE,-33.21198,-70.66491,MAS DE $100.000,MAS DE $100.000,COLEGIO ANGLO AMERICAN INTERNATIONAL SCHOOL,-33.35578,-70.48153,MAS DE $100.000,MAS DE $100.000,2019-01-01
2018-01-01,141,8860,11971,1.0,COLEGIO SANTO DOMINGO_PADRES DOMINICOS,-33.45064,-70.52094,MAS DE $100.000,MAS DE $100.000,COLEGIO ANGLO AMERICAN INTERNATIONAL SCHOOL,-33.35578,-70.48153,MAS DE $100.000,MAS DE $100.000,2019-01-01
2018-01-01,142,8860,11968,2.0,COLEGIO CUMBRES,-33.39602,-70.50479,MAS DE $100.000,MAS DE $100.000,COLEGIO ANGLO AMERICAN INTERNATIONAL SCHOOL,-33.35578,-70.48153,MAS DE $100.000,MAS DE $100.000,2019-01-01
2018-01-01,143,8860,8991,1.0,COLEGIO PADRE HURTADO Y JUANITA DE LOS ANDES,-33.41359,-70.51216,MAS DE $100.000,MAS DE $100.000,COLEGIO ANGLO AMERICAN INTERNATIONAL SCHOOL,-33.35578,-70.48153,MAS DE $100.000,MAS DE $100.000,2019-01-01
2018-01-01,144,8860,24908,1.0,COLEGIO PEDRO DE VALDIVIA LAS CONDES,-33.37046,-70.5082,MAS DE $100.000,MAS DE $100.000,COLEGIO ANGLO AMERICAN INTERNATIONAL SCHOOL,-33.35578,-70.48153,MAS DE $100.000,MAS DE $100.000,2019-01-01
2018-01-01,145,8860,9237,2.0,INSTITUTO HEBREO DR CHAIM WEIZMANN-ORT,-33.36979,-70.50739,MAS DE $100.000,MAS DE $100.000,COLEGIO ANGLO AMERICAN INTERNATIONAL SCHOOL,-33.35578,-70.48153,MAS DE $100.000,MAS DE $100.000,2019-01-01
2018-01-01,146,8860,8914,1.0,COLEGIO WILLIAM KILPATRICK,-33.39464,-70.5214,MAS DE $100.000,MAS DE $100.000,COLEGIO ANGLO AMERICAN INTERNATIONAL SCHOOL,-33.35578,-70.48153,MAS DE $100.000,MAS DE $100.000,2019-01-01
2018-01-01,147,8860,25107,1.0,COLEGIO MAIMONIDES SCHOOL,-33.36208,-70.48499,MAS DE $100.000,MAS DE $100.000,COLEGIO ANGLO AMERICAN INTERNATIONAL SCHOOL,-33.35578,-70.48153,MAS DE $100.000,MAS DE $100.000,2019-01-01
2018-01-01,148,8860,26311,1.0,COLEGIO LINCOLN INTERN ACADEMY VALLE NORTE CHICUREO,-33.19401,-70.65999,MAS DE $100.000,MAS DE $100.000,COLEGIO ANGLO AMERICAN INTERNATIONAL SCHOOL,-33.35578,-70.48153,MAS DE $100.000,MAS DE $100.000,2019-01-01
2018-01-01,149,8862,25278,2.0,COLEGIO CAMPANARIO,-33.76028,-70.73548,MAS DE $100.000,MAS DE $100.000,COLEGIO TABANCURA,-33.38027,-70.53482,MAS DE $100.000,MAS DE $100.000,2019-01-01
2018-01-01,150,8862,8972,6.0,COLEGIO SAN BENITO,-33.37164,-70.58101,MAS DE $100.000,MAS DE $100.000,COLEGIO TABANCURA,-33.38027,-70.53482,MAS DE $100.000,MAS DE $100.000,2019-01-01
2018-01-01,151,8862,8877,1.0,COLEGIO DE LOS SAGRADOS CORAZONES,-33.37868,-70.55175,MAS DE $100.000,MAS DE $100.000,COLEGIO TABANCURA,-33.38027,-70.53482,MAS DE $100.000,MAS DE $100.000,2019-01-01
2018-01-01,152,8862,8893,1.0,COLEGIO INTERNACIONAL SEK CHILE,-33.40303,-70.56446,MAS DE $100.000,MAS DE $100.000,COLEGIO TABANCURA,-33.38027,-70.53482,MAS DE $100.000,MAS DE $100.000,2019-01-01
2018-01-01,153,8863,8878,1.0,COLEGIO DEL SAGRADO CORAZON DE APOQUINDO,-33.41013,-70.54981,MAS DE $100.000,MAS DE $100.000,COLEGIO SCUOLA ITALIANA VITTORIO MONTIGLIO,-33.39681,-70.50497,MAS DE $100.000,MAS DE $100.000,2019-01-01
2018-01-01,154,8863,9042,1.0,COLEGIO DE LA SALLE,-33.44089,-70.57238,MAS DE $100.000,MAS DE $100.000,COLEGIO SCUOLA ITALIANA VITTORIO MONTIGLIO,-33.39681,-70.50497,MAS DE $100.000,MAS DE $100.000,2019-01-01
2018-01-01,155,8863,8846,1.0,COLEGIO INMACULADA CONCEPCION,-33.40279,-70.59391,$50.001 A $100.000,MAS DE $100.000,COLEGIO SCUOLA ITALIANA VITTORIO MONTIGLIO,-33.39681,-70.50497,MAS DE $100.000,MAS DE $100.000,2019-01-01
2018-01-01,156,8863,24761,1.0,SAN JUAN DE LAS CONDES,-33.42982,-70.58354,MAS DE $100.000,MAS DE $100.000,COLEGIO SCUOLA ITALIANA VITTORIO MONTIGLIO,-33.39681,-70.50497,MAS DE $100.000,MAS DE $100.000,2019-01-01
2018-01-01,157,8863,31504,1.0,ESCUELA BASICA N°2416 TREWHELA´S SCHOOL,-33.25051,-70.71502,SIN INFORMACION,SIN INFORMACION,COLEGIO SCUOLA ITALIANA VITTORIO MONTIGLIO,-33.39681,-70.50497,MAS DE $100.000,MAS DE $100.000,2019-01-01
2018-01-01,158,8863,11783,2.0,ESCUELA BASICA N°1238 GIORDANO BRUNO,-33.50656,-70.55873,MAS DE $100.000,MAS DE $100.000,COLEGIO SCUOLA ITALIANA VITTORIO MONTIGLIO,-33.39681,-70.50497,MAS DE $100.000,MAS DE $100.000,2019-01-01
2018-01-01,159,8863,12265,1.0,COLEGIO THE SOUTHERN CROSS SCHOOL,-33.37034,-70.50531,MAS DE $100.000,MAS DE $100.000,COLEGIO SCUOLA ITALIANA VITTORIO MONTIGLIO,-33.39681,-70.50497,MAS DE $100.000,MAS DE $100.000,2019-01-01
2018-01-01,160,8867,25348,4.0,COLEGIO  SAN JOSE DE CHICUREO,-33.278,-70.63866,MAS DE $100.000,MAS DE $100.000,COLEGIO FRANCISCO DE ASIS,-33.3919,-70.5098,MAS DE $100.000,MAS DE $100.000,2019-01-01
2018-01-01,161,8867,8862,1.0,COLEGIO TABANCURA,-33.38027,-70.53482,MAS DE $100.000,MAS DE $100.000,COLEGIO FRANCISCO DE ASIS,-33.3919,-70.5098,MAS DE $100.000,MAS DE $100.000,2019-01-01
2018-01-01,162,8867,8953,3.0,COLEGIO HUELEN,-33.37798,-70.57543,MAS DE $100.000,MAS DE $100.000,COLEGIO FRANCISCO DE ASIS,-33.3919,-70.5098,MAS DE $100.000,MAS DE $100.000,2019-01-01
2018-01-01,163,8867,8877,5.0,COLEGIO DE LOS SAGRADOS CORAZONES,-33.37868,-70.55175,MAS DE $100.000,MAS DE $100.000,COLEGIO FRANCISCO DE ASIS,-33.3919,-70.5098,MAS DE $100.000,MAS DE $100.000,2019-01-01
2018-01-01,164,8867,25654,1.0,COLEGIO EVEREST,-33.3343,-70.55418,MAS DE $100.000,MAS DE $100.000,COLEGIO FRANCISCO DE ASIS,-33.3919,-70.5098,MAS DE $100.000,MAS DE $100.000,2019-01-01
2018-01-01,165,8867,24979,2.0,COLEGIO LOS ALERCES,-33.36407,-70.51881,MAS DE $100.000,MAS DE $100.000,COLEGIO FRANCISCO DE ASIS,-33.3919,-70.5098,MAS DE $100.000,MAS DE $100.000,2019-01-01
2018-01-01,166,8867,8888,1.0,COLEGIO DEL VERBO DIVINO,-33.42012,-70.58665,MAS DE $100.000,MAS DE $100.000,COLEGIO FRANCISCO DE ASIS,-33.3919,-70.5098,MAS DE $100.000,MAS DE $100.000,2019-01-01
2018-01-01,167,8867,8904,1.0,COLEGIO SANTA URSULA,-33.39352,-70.59769,MAS DE $100.000,MAS DE $100.000,COLEGIO FRANCISCO DE ASIS,-33.3919,-70.5098,MAS DE $100.000,MAS DE $100.000,2019-01-01
2018-01-01,168,8867,20311,3.0,COLEGIO HUINGANAL,-33.33589,-70.51255,MAS DE $100.000,MAS DE $100.000,COLEGIO FRANCISCO DE ASIS,-33.3919,-70.5098,MAS DE $100.000,MAS DE $100.000,2019-01-01
2018-01-01,169,8867,8871,1.0,COLEGIO LOS ANDES DE VITACURA,-33.3755,-70.52658,MAS DE $100.000,MAS DE $100.000,COLEGIO FRANCISCO DE ASIS,-33.3919,-70.5098,MAS DE $100.000,MAS DE $100.000,2019-01-01
2018-01-01,170,8868,8919,1.0,COLEGIO SAN PEDRO NOLASCO,-33.39814,-70.573,MAS DE $100.000,MAS DE $100.000,COLEGIO LA GIROUETTE,-33.42051,-70.56871,MAS DE $100.000,MAS DE $100.000,2019-01-01
2018-01-01,171,8868,9004,1.0,COLEGIO UNIVERSITARIO INGLES,-33.42706,-70.62217,MAS DE $100.000,MAS DE $100.000,COLEGIO LA GIROUETTE,-33.42051,-70.56871,MAS DE $100.000,MAS DE $100.000,2019-01-01
2018-01-01,172,8868,9221,1.0,COLEGIO ALTAMIRA,-33.4792,-70.53828,MAS DE $100.000,MAS DE $100.000,COLEGIO LA GIROUETTE,-33.42051,-70.56871,MAS DE $100.000,MAS DE $100.000,2019-01-01
2018-01-01,173,8868,24817,23.0,ESCUELA BASICA N°1517 MADRIGAL,-33.43956,-70.52313,MAS DE $100.000,MAS DE $100.000,COLEGIO LA GIROUETTE,-33.42051,-70.56871,MAS DE $100.000,MAS DE $100.000,2019-01-01
2018-01-01,174,8868,8906,1.0,COLEGIO SAINT GEORGE S COLLEGE,-33.38645,-70.60084,MAS DE $100.000,MAS DE $100.000,COLEGIO LA GIROUETTE,-33.42051,-70.56871,MAS DE $100.000,MAS DE $100.000,2019-01-01
2018-01-01,175,8868,8888,1.0,COLEGIO DEL VERBO DIVINO,-33.42012,-70.58665,MAS DE $100.000,MAS DE $100.000,COLEGIO LA GIROUETTE,-33.42051,-70.56871,MAS DE $100.000,MAS DE $100.000,2019-01-01
2018-01-01,176,8868,24627,1.0,COLEGIO ETIEVAN,-33.44151,-70.52888,MAS DE $100.000,MAS DE $100.000,COLEGIO LA GIROUETTE,-33.42051,-70.56871,MAS DE $100.000,MAS DE $100.000,2019-01-01
2018-01-01,177,8868,8923,2.0,LYCÉE ANTOINE DE SAINT-EXUPÉRY,-33.3949,-70.58243,MAS DE $100.000,MAS DE $100.000,COLEGIO LA GIROUETTE,-33.42051,-70.56871,MAS DE $100.000,MAS DE $100.000,2019-01-01
2018-01-01,178,8869,24624,1.0,COLEGIO TABOR Y NAZARETH,-33.32493,-70.54153,MAS DE $100.000,MAS DE $100.000,COLEGIO THE NEWLAND SCHOOL,-33.35983,-70.53316,MAS DE $100.000,MAS DE $100.000,2019-01-01
2018-01-01,179,8870,8909,1.0,COLEGIO BRADFORD SCHOOL,-33.38399,-70.57339,MAS DE $100.000,MAS DE $100.000,COLEGIO COMPANIA DE MARIA APOQUINDO,-33.40982,-70.56657,MAS DE $100.000,MAS DE $100.000,2019-01-01
2018-01-01,180,8870,8996,1.0,COLEGIO SAN IGNACIO EL BOSQUE,-33.43307,-70.59447,MAS DE $100.000,MAS DE $100.000,COLEGIO COMPANIA DE MARIA APOQUINDO,-33.40982,-70.56657,MAS DE $100.000,MAS DE $100.000,2019-01-01
2018-01-01,181,8870,25675,1.0,COLEGIO PART. CORAZON DE MARIA DE SAN MIGUEL,-33.49819,-70.65727,MAS DE $100.000,MAS DE $100.000,COLEGIO COMPANIA DE MARIA APOQUINDO,-33.40982,-70.56657,MAS DE $100.000,MAS DE $100.000,2019-01-01
2018-01-01,182,8870,9217,2.0,COLEGIO AKROS,-33.45534,-70.58912,MAS DE $100.000,MAS DE $100.000,COLEGIO COMPANIA DE MARIA APOQUINDO,-33.40982,-70.56657,MAS DE $100.000,MAS DE $100.000,2019-01-01
2018-01-01,183,8870,9053,1.0,COLEGIO TERESIANO ENRIQUE DE OSSO,-33.44229,-70.57221,MAS DE $100.000,MAS DE $100.000,COLEGIO COMPANIA DE MARIA APOQUINDO,-33.40982,-70.56657,MAS DE $100.000,MAS DE $100.000,2019-01-01
2018-01-01,184,8870,8609,3.0,COLEGIO SAN IGNACIO,-33.44706,-70.65616,MAS DE $100.000,MAS DE $100.000,COLEGIO COMPANIA DE MARIA APOQUINDO,-33.40982,-70.56657,MAS DE $100.000,MAS DE $100.000,2019-01-01
2018-01-01,185,8870,8959,1.0,COLEGIO SUPERIOR CAMBRIDGE,-33.44031,-70.63028,MAS DE $100.000,MAS DE $100.000,COLEGIO COMPANIA DE MARIA APOQUINDO,-33.40982,-70.56657,MAS DE $100.000,MAS DE $100.000,2019-01-01
2018-01-01,186,8870,8761,1.0,COLEGIO INSTITUTO DE HUMANIDADES LUIS CAMPINO,-33.42616,-70.6112,MAS DE $100.000,MAS DE $100.000,COLEGIO COMPANIA DE MARIA APOQUINDO,-33.40982,-70.56657,MAS DE $100.000,MAS DE $100.000,2019-01-01
2018-01-01,187,8870,9054,3.0,COLEGIO SAINT JOHN´S VILLA ACADEMY,-33.43306,-70.55448,MAS DE $100.000,MAS DE $100.000,COLEGIO COMPANIA DE MARIA APOQUINDO,-33.40982,-70.56657,MAS DE $100.000,MAS DE $100.000,2019-01-01
2018-01-01,188,8870,8978,1.0,COLEGIO DUNALASTAIR,-33.37455,-70.52093,$25.001 A $50.000,MAS DE $100.000,COLEGIO COMPANIA DE MARIA APOQUINDO,-33.40982,-70.56657,MAS DE $100.000,MAS DE $100.000,2019-01-01
2018-01-01,189,8870,9278,1.0,COLEGIO INSTITUTO SANTA MARIA,-33.4577,-70.59607,MAS DE $100.000,MAS DE $100.000,COLEGIO COMPANIA DE MARIA APOQUINDO,-33.40982,-70.56657,MAS DE $100.000,MAS DE $100.000,2019-01-01
2018-01-01,190,8870,8893,3.0,COLEGIO INTERNACIONAL SEK CHILE,-33.40303,-70.56446,MAS DE $100.000,MAS DE $100.000,COLEGIO COMPANIA DE MARIA APOQUINDO,-33.40982,-70.56657,MAS DE $100.000,MAS DE $100.000,2019-01-01
2018-01-01,191,8870,8974,2.0,COLEGIO CAMPVS COLLEGE,-33.43704,-70.61461,MAS DE $100.000,MAS DE $100.000,COLEGIO COMPANIA DE MARIA APOQUINDO,-33.40982,-70.56657,MAS DE $100.000,MAS DE $100.000,2019-01-01
2018-01-01,192,8870,24761,1.0,SAN JUAN DE LAS CONDES,-33.42982,-70.58354,MAS DE $100.000,MAS DE $100.000,COLEGIO COMPANIA DE MARIA APOQUINDO,-33.40982,-70.56657,MAS DE $100.000,MAS DE $100.000,2019-01-01
2018-01-01,193,8870,8970,1.0,COLEGIO SAINT GABRIEL´S SCHOOL ANEXO,-33.42741,-70.59282,MAS DE $100.000,MAS DE $100.000,COLEGIO COMPANIA DE MARIA APOQUINDO,-33.40982,-70.56657,MAS DE $100.000,MAS DE $100.000,2019-01-01
2018-01-01,194,8870,12086,1.0,COLEGIO COYANCURA,-33.42906,-70.58669,MAS DE $100.000,MAS DE $100.000,COLEGIO COMPANIA DE MARIA APOQUINDO,-33.40982,-70.56657,MAS DE $100.000,MAS DE $100.000,2019-01-01
2018-01-01,195,8870,8988,1.0,COLEGIO MARIANO,-33.43983,-70.5984,MAS DE $100.000,MAS DE $100.000,COLEGIO COMPANIA DE MARIA APOQUINDO,-33.40982,-70.56657,MAS DE $100.000,MAS DE $100.000,2019-01-01
2018-01-01,196,8870,8846,1.0,COLEGIO INMACULADA CONCEPCION,-33.40279,-70.59391,$50.001 A $100.000,MAS DE $100.000,COLEGIO COMPANIA DE MARIA APOQUINDO,-33.40982,-70.56657,MAS DE $100.000,MAS DE $100.000,2019-01-01
2018-01-01,197,8870,25373,1.0,COLEGIO SAN RAFAEL ARCANGEL,-33.43659,-70.57406,MAS DE $100.000,MAS DE $100.000,COLEGIO COMPANIA DE MARIA APOQUINDO,-33.40982,-70.56657,MAS DE $100.000,MAS DE $100.000,2019-01-01
2018-01-01,198,8870,8950,1.0,COLEGIO COMPANIA DE MARIA-SEMINARIO,-33.43723,-70.63094,MAS DE $100.000,MAS DE $100.000,COLEGIO COMPANIA DE MARIA APOQUINDO,-33.40982,-70.56657,MAS DE $100.000,MAS DE $100.000,2019-01-01
2018-01-01,199,8870,9003,1.0,COLEGIO THE ENGLISH INSTITUTE,-33.44017,-70.60291,MAS DE $100.000,MAS DE $100.000,COLEGIO COMPANIA DE MARIA APOQUINDO,-33.40982,-70.56657,MAS DE $100.000,MAS DE $100.000,2019-01-01
2018-01-01,200,8870,8966,1.0,COLEGIO SAINT GABRIEL´S SCHOOL LOCAL SEDE,-33.43198,-70.58551,MAS DE $100.000,MAS DE $100.000,COLEGIO COMPANIA DE MARIA APOQUINDO,-33.40982,-70.56657,MAS DE $100.000,MAS DE $100.000,2019-01-01
2018-01-01,201,8870,8888,1.0,COLEGIO DEL VERBO DIVINO,-33.42012,-70.58665,MAS DE $100.000,MAS DE $100.000,COLEGIO COMPANIA DE MARIA APOQUINDO,-33.40982,-70.56657,MAS DE $100.000,MAS DE $100.000,2019-01-01
2018-01-01,202,8870,9271,1.0,COLEGIO THE KENT SCHOOL,-33.44251,-70.60645,MAS DE $100.000,MAS DE $100.000,COLEGIO COMPANIA DE MARIA APOQUINDO,-33.40982,-70.56657,MAS DE $100.000,MAS DE $100.000,2019-01-01
2018-01-01,203,8870,25669,1.0,COLEGIO HIGHLANDS,-33.21859,-70.66314,MAS DE $100.000,MAS DE $100.000,COLEGIO COMPANIA DE MARIA APOQUINDO,-33.40982,-70.56657,MAS DE $100.000,MAS DE $100.000,2019-01-01
2018-01-01,204,8870,26507,2.0,COLEGIO SAN FRANCISCO DE PAINE,-33.81229,-70.74465,MAS DE $100.000,MAS DE $100.000,COLEGIO COMPANIA DE MARIA APOQUINDO,-33.40982,-70.56657,MAS DE $100.000,MAS DE $100.000,2019-01-01
2018-01-01,205,8870,8757,1.0,COLEGIO DE LOS SAGRADOS CORAZONES ALAMEDA,-33.44748,-70.66424,MAS DE $100.000,MAS DE $100.000,COLEGIO COMPANIA DE MARIA APOQUINDO,-33.40982,-70.56657,MAS DE $100.000,MAS DE $100.000,2019-01-01
2018-01-01,206,8870,31373,1.0,COLEGIO SAINT JOSEPH SCHOOL,-33.35254,-70.67854,MAS DE $100.000,MAS DE $100.000,COLEGIO COMPANIA DE MARIA APOQUINDO,-33.40982,-70.56657,MAS DE $100.000,MAS DE $100.000,2019-01-01
2018-01-01,207,8870,25310,1.0,COLEGIO SAN NICOLÁS DIÁCONO,-33.27973,-70.7032,MAS DE $100.000,MAS DE $100.000,COLEGIO COMPANIA DE MARIA APOQUINDO,-33.40982,-70.56657,MAS DE $100.000,MAS DE $100.000,2019-01-01
2018-01-01,208,8870,9042,1.0,COLEGIO DE LA SALLE,-33.44089,-70.57238,MAS DE $100.000,MAS DE $100.000,COLEGIO COMPANIA DE MARIA APOQUINDO,-33.40982,-70.56657,MAS DE $100.000,MAS DE $100.000,2019-01-01
2018-01-01,209,8870,8892,1.0,COLEGIO SAN JUAN EVANGELISTA,-33.41495,-70.56326,MAS DE $100.000,MAS DE $100.000,COLEGIO COMPANIA DE MARIA APOQUINDO,-33.40982,-70.56657,MAS DE $100.000,MAS DE $100.000,2019-01-01
2018-01-01,210,8870,25852,1.0,COLEGIO DIVINA PASTORA NUNOA,-33.45912,-70.60557,MAS DE $100.000,MAS DE $100.000,COLEGIO COMPANIA DE MARIA APOQUINDO,-33.40982,-70.56657,MAS DE $100.000,MAS DE $100.000,2019-01-01
2018-01-01,211,8871,8972,1.0,COLEGIO SAN BENITO,-33.37164,-70.58101,MAS DE $100.000,MAS DE $100.000,COLEGIO LOS ANDES DE VITACURA,-33.3755,-70.52658,MAS DE $100.000,MAS DE $100.000,2019-01-01
2018-01-01,212,8871,8748,2.0,COLEGIO INSTITUTO ALONSO DE ERCILLA,-33.43771,-70.66662,MAS DE $100.000,MAS DE $100.000,COLEGIO LOS ANDES DE VITACURA,-33.3755,-70.52658,MAS DE $100.000,MAS DE $100.000,2019-01-01
2018-01-01,213,8871,8893,1.0,COLEGIO INTERNACIONAL SEK CHILE,-33.40303,-70.56446,MAS DE $100.000,MAS DE $100.000,COLEGIO LOS ANDES DE VITACURA,-33.3755,-70.52658,MAS DE $100.000,MAS DE $100.000,2019-01-01
2018-01-01,214,8871,8953,3.0,COLEGIO HUELEN,-33.37798,-70.57543,MAS DE $100.000,MAS DE $100.000,COLEGIO LOS ANDES DE VITACURA,-33.3755,-70.52658,MAS DE $100.000,MAS DE $100.000,2019-01-01
2018-01-01,215,8871,24927,1.0,COLEGIO SAN  ANSELMO,-33.27289,-70.64245,MAS DE $100.000,MAS DE $100.000,COLEGIO LOS ANDES DE VITACURA,-33.3755,-70.52658,MAS DE $100.000,MAS DE $100.000,2019-01-01
2018-01-01,216,8871,24979,1.0,COLEGIO LOS ALERCES,-33.36407,-70.51881,MAS DE $100.000,MAS DE $100.000,COLEGIO LOS ANDES DE VITACURA,-33.3755,-70.52658,MAS DE $100.000,MAS DE $100.000,2019-01-01
2018-01-01,217,8871,8904,3.0,COLEGIO SANTA URSULA,-33.39352,-70.59769,MAS DE $100.000,MAS DE $100.000,COLEGIO LOS ANDES DE VITACURA,-33.3755,-70.52658,MAS DE $100.000,MAS DE $100.000,2019-01-01
2018-01-01,218,8872,12087,1.0,COLEGIO BRITISH ROYAL SCHOOL,-33.45106,-70.5277,MAS DE $100.000,MAS DE $100.000,COLEGIO WENLOCK SCHOOL,-33.41128,-70.52214,MAS DE $100.000,MAS DE $100.000,2019-01-01
2018-01-01,219,8872,8917,4.0,COLEGIO CRAIGHOUSE,-33.3539,-70.52275,MAS DE $100.000,MAS DE $100.000,COLEGIO WENLOCK SCHOOL,-33.41128,-70.52214,MAS DE $100.000,MAS DE $100.000,2019-01-01
2018-01-01,220,8872,9054,1.0,COLEGIO SAINT JOHN´S VILLA ACADEMY,-33.43306,-70.55448,MAS DE $100.000,MAS DE $100.000,COLEGIO WENLOCK SCHOOL,-33.41128,-70.52214,MAS DE $100.000,MAS DE $100.000,2019-01-01
2018-01-01,221,8872,9271,1.0,COLEGIO THE KENT SCHOOL,-33.44251,-70.60645,MAS DE $100.000,MAS DE $100.000,COLEGIO WENLOCK SCHOOL,-33.41128,-70.52214,MAS DE $100.000,MAS DE $100.000,2019-01-01
2018-01-01,222,8872,8914,1.0,COLEGIO WILLIAM KILPATRICK,-33.39464,-70.5214,MAS DE $100.000,MAS DE $100.000,COLEGIO WENLOCK SCHOOL,-33.41128,-70.52214,MAS DE $100.000,MAS DE $100.000,2019-01-01
2018-01-01,223,8872,8978,1.0,COLEGIO DUNALASTAIR,-33.37455,-70.52093,$25.001 A $50.000,MAS DE $100.000,COLEGIO WENLOCK SCHOOL,-33.41128,-70.52214,MAS DE $100.000,MAS DE $100.000,2019-01-01
2018-01-01,224,8872,31276,1.0,COLEGIO GRACE COLLEGE,-33.35428,-70.67752,MAS DE $100.000,MAS DE $100.000,COLEGIO WENLOCK SCHOOL,-33.41128,-70.52214,MAS DE $100.000,MAS DE $100.000,2019-01-01
2018-01-01,225,8872,8909,1.0,COLEGIO BRADFORD SCHOOL,-33.38399,-70.57339,MAS DE $100.000,MAS DE $100.000,COLEGIO WENLOCK SCHOOL,-33.41128,-70.52214,MAS DE $100.000,MAS DE $100.000,2019-01-01
2018-01-01,226,8873,8903,1.0,COLEGIO LINCOLN INTERNATIONAL ACADEMY,-33.37027,-70.51083,MAS DE $100.000,MAS DE $100.000,COLEGIO VILLA MARIA ACADEMY,-33.42059,-70.58922,MAS DE $100.000,MAS DE $100.000,2019-01-01
2018-01-01,227,8873,8904,1.0,COLEGIO SANTA URSULA,-33.39352,-70.59769,MAS DE $100.000,MAS DE $100.000,COLEGIO VILLA MARIA ACADEMY,-33.42059,-70.58922,MAS DE $100.000,MAS DE $100.000,2019-01-01
2018-01-01,228,8873,8953,1.0,COLEGIO HUELEN,-33.37798,-70.57543,MAS DE $100.000,MAS DE $100.000,COLEGIO VILLA MARIA ACADEMY,-33.42059,-70.58922,MAS DE $100.000,MAS DE $100.000,2019-01-01
2018-01-01,229,8873,25329,2.0,COLEGIO SANTA CRUZ DE CHICUREO,-33.28689,-70.67077,MAS DE $100.000,MAS DE $100.000,COLEGIO VILLA MARIA ACADEMY,-33.42059,-70.58922,MAS DE $100.000,MAS DE $100.000,2019-01-01
2018-01-01,230,8876,25202,1.0,COLEGIO  PUMAHUE HUECHURABA,-33.35736,-70.66317,MAS DE $100.000,MAS DE $100.000,COLEGIO MANANTIALES,-33.43204,-70.60234,MAS DE $100.000,MAS DE $100.000,2019-01-01
2018-01-01,231,8876,9277,1.0,COLEGIO SAN MARCOS,-33.4737,-70.5977,MAS DE $100.000,MAS DE $100.000,COLEGIO MANANTIALES,-33.43204,-70.60234,MAS DE $100.000,MAS DE $100.000,2019-01-01
2018-01-01,232,8876,24761,1.0,SAN JUAN DE LAS CONDES,-33.42982,-70.58354,MAS DE $100.000,MAS DE $100.000,COLEGIO MANANTIALES,-33.43204,-70.60234,MAS DE $100.000,MAS DE $100.000,2019-01-01
2018-01-01,233,8876,8966,1.0,COLEGIO SAINT GABRIEL´S SCHOOL LOCAL SEDE,-33.43198,-70.58551,MAS DE $100.000,MAS DE $100.000,COLEGIO MANANTIALES,-33.43204,-70.60234,MAS DE $100.000,MAS DE $100.000,2019-01-01
2018-01-01,234,8876,24625,1.0,COLEGIO SAN CRISTOBAL COLLEGE,-33.49538,-70.65242,$50.001 A $100.000,MAS DE $100.000,COLEGIO MANANTIALES,-33.43204,-70.60234,MAS DE $100.000,MAS DE $100.000,2019-01-01
2018-01-01,235,8876,12086,1.0,COLEGIO COYANCURA,-33.42906,-70.58669,MAS DE $100.000,MAS DE $100.000,COLEGIO MANANTIALES,-33.43204,-70.60234,MAS DE $100.000,MAS DE $100.000,2019-01-01
2018-01-01,236,8876,9230,1.0,COLEGIO ISABEL LA CATOLICA,-33.44771,-70.60389,MAS DE $100.000,MAS DE $100.000,COLEGIO MANANTIALES,-33.43204,-70.60234,MAS DE $100.000,MAS DE $100.000,2019-01-01
2018-01-01,237,8876,25373,1.0,COLEGIO SAN RAFAEL ARCANGEL,-33.43659,-70.57406,MAS DE $100.000,MAS DE $100.000,COLEGIO MANANTIALES,-33.43204,-70.60234,MAS DE $100.000,MAS DE $100.000,2019-01-01
2018-01-01,238,8876,26046,2.0,COLEGIO  MANQUECURA CIUDAD DE LOS VALLES,-33.45062,-70.84866,MAS DE $100.000,MAS DE $100.000,COLEGIO MANANTIALES,-33.43204,-70.60234,MAS DE $100.000,MAS DE $100.000,2019-01-01
2018-01-01,239,8876,8950,1.0,COLEGIO COMPANIA DE MARIA-SEMINARIO,-33.43723,-70.63094,MAS DE $100.000,MAS DE $100.000,COLEGIO MANANTIALES,-33.43204,-70.60234,MAS DE $100.000,MAS DE $100.000,2019-01-01
2018-01-01,240,8877,8996,2.0,COLEGIO SAN IGNACIO EL BOSQUE,-33.43307,-70.59447,MAS DE $100.000,MAS DE $100.000,COLEGIO DE LOS SAGRADOS CORAZONES,-33.37868,-70.55175,MAS DE $100.000,MAS DE $100.000,2019-01-01
2018-01-01,241,8877,8878,1.0,COLEGIO DEL SAGRADO CORAZON DE APOQUINDO,-33.41013,-70.54981,MAS DE $100.000,MAS DE $100.000,COLEGIO DE LOS SAGRADOS CORAZONES,-33.37868,-70.55175,MAS DE $100.000,MAS DE $100.000,2019-01-01
2018-01-01,242,8877,12094,1.0,COLEGIO SAN ESTEBAN DIÁCONO,-33.38227,-70.55391,MAS DE $100.000,MAS DE $100.000,COLEGIO DE LOS SAGRADOS CORAZONES,-33.37868,-70.55175,MAS DE $100.000,MAS DE $100.000,2019-01-01
2018-01-01,243,8877,26080,1.0,COLEGIO SAINT ANDREW,-33.38888,-70.54024,MAS DE $100.000,MAS DE $100.000,COLEGIO DE LOS SAGRADOS CORAZONES,-33.37868,-70.55175,MAS DE $100.000,MAS DE $100.000,2019-01-01
2018-01-01,244,8877,9244,1.0,FUNDACIÓN EDUCACIONAL COLEGIO NOTRE DAME,-33.48649,-70.56005,MAS DE $100.000,MAS DE $100.000,COLEGIO DE LOS SAGRADOS CORAZONES,-33.37868,-70.55175,MAS DE $100.000,MAS DE $100.000,2019-01-01
2018-01-01,245,8877,8757,1.0,COLEGIO DE LOS SAGRADOS CORAZONES ALAMEDA,-33.44748,-70.66424,MAS DE $100.000,MAS DE $100.000,COLEGIO DE LOS SAGRADOS CORAZONES,-33.37868,-70.55175,MAS DE $100.000,MAS DE $100.000,2019-01-01
2018-01-01,246,8878,9054,3.0,COLEGIO SAINT JOHN´S VILLA ACADEMY,-33.43306,-70.55448,MAS DE $100.000,MAS DE $100.000,COLEGIO DEL SAGRADO CORAZON DE APOQUINDO,-33.41013,-70.54981,MAS DE $100.000,MAS DE $100.000,2019-01-01
2018-01-01,247,8878,9271,2.0,COLEGIO THE KENT SCHOOL,-33.44251,-70.60645,MAS DE $100.000,MAS DE $100.000,COLEGIO DEL SAGRADO CORAZON DE APOQUINDO,-33.41013,-70.54981,MAS DE $100.000,MAS DE $100.000,2019-01-01
2018-01-01,248,8878,24944,1.0,COLEGIO NUESTRA SEÑORA DEL CAMINO,-33.44513,-70.55209,MAS DE $100.000,MAS DE $100.000,COLEGIO DEL SAGRADO CORAZON DE APOQUINDO,-33.41013,-70.54981,MAS DE $100.000,MAS DE $100.000,2019-01-01
2018-01-01,249,8880,12265,1.0,COLEGIO THE SOUTHERN CROSS SCHOOL,-33.37034,-70.50531,MAS DE $100.000,MAS DE $100.000,COLEGIO NIDO DE AGUILAS,-33.35153,-70.50129,MAS DE $100.000,MAS DE $100.000,2019-01-01
2018-01-01,250,8880,24718,2.0,COLEGIO HUELQUEN MONTESSORI,-33.3513,-70.5048,MAS DE $100.000,MAS DE $100.000,COLEGIO NIDO DE AGUILAS,-33.35153,-70.50129,MAS DE $100.000,MAS DE $100.000,2019-01-01
2018-01-01,251,8880,31499,1.0,COLEGIO THE SOUTHLAND,-33.36478,-70.49593,MAS DE $100.000,MAS DE $100.000,COLEGIO NIDO DE AGUILAS,-33.35153,-70.50129,MAS DE $100.000,MAS DE $100.000,2019-01-01
2018-01-01,252,8880,8978,3.0,COLEGIO DUNALASTAIR,-33.37455,-70.52093,$25.001 A $50.000,MAS DE $100.000,COLEGIO NIDO DE AGUILAS,-33.35153,-70.50129,MAS DE $100.000,MAS DE $100.000,2019-01-01
2018-01-01,253,8880,8972,1.0,COLEGIO SAN BENITO,-33.37164,-70.58101,MAS DE $100.000,MAS DE $100.000,COLEGIO NIDO DE AGUILAS,-33.35153,-70.50129,MAS DE $100.000,MAS DE $100.000,2019-01-01
2018-01-01,254,8880,25180,1.0,COLEGIO RAYEN MAHUIDA,-33.26543,-70.72248,MAS DE $100.000,MAS DE $100.000,COLEGIO NIDO DE AGUILAS,-33.35153,-70.50129,MAS DE $100.000,MAS DE $100.000,2019-01-01
2018-01-01,255,8880,25643,3.0,ESCUELA BASICA N°1906 THE INTERNATIONAL PREPARATORY SCHOOL,-33.36229,-70.48358,MAS DE $100.000,MAS DE $100.000,COLEGIO NIDO DE AGUILAS,-33.35153,-70.50129,MAS DE $100.000,MAS DE $100.000,2019-01-01
2018-01-01,256,8880,9244,1.0,FUNDACIÓN EDUCACIONAL COLEGIO NOTRE DAME,-33.48649,-70.56005,MAS DE $100.000,MAS DE $100.000,COLEGIO NIDO DE AGUILAS,-33.35153,-70.50129,MAS DE $100.000,MAS DE $100.000,2019-01-01
2018-01-01,257,8880,8903,3.0,COLEGIO LINCOLN INTERNATIONAL ACADEMY,-33.37027,-70.51083,MAS DE $100.000,MAS DE $100.000,COLEGIO NIDO DE AGUILAS,-33.35153,-70.50129,MAS DE $100.000,MAS DE $100.000,2019-01-01
2018-01-01,258,8880,25107,3.0,COLEGIO MAIMONIDES SCHOOL,-33.36208,-70.48499,MAS DE $100.000,MAS DE $100.000,COLEGIO NIDO DE AGUILAS,-33.35153,-70.50129,MAS DE $100.000,MAS DE $100.000,2019-01-01
2018-01-01,259,8880,8979,2.0,COLEGIO ALEMAN DE SANTIAGO,-33.398,-70.56839,MAS DE $100.000,MAS DE $100.000,COLEGIO NIDO DE AGUILAS,-33.35153,-70.50129,MAS DE $100.000,MAS DE $100.000,2019-01-01
2018-01-01,260,8885,8991,1.0,COLEGIO PADRE HURTADO Y JUANITA DE LOS ANDES,-33.41359,-70.51216,MAS DE $100.000,MAS DE $100.000,COLEGIO REDLAND SCHOOL,-33.40165,-70.52072,MAS DE $100.000,MAS DE $100.000,2019-01-01
2018-01-01,261,8885,11776,1.0,COLEGIO THE MAYFLOWER SCHOOL,-33.34607,-70.50415,MAS DE $100.000,MAS DE $100.000,COLEGIO REDLAND SCHOOL,-33.40165,-70.52072,MAS DE $100.000,MAS DE $100.000,2019-01-01
2018-01-01,262,8885,8978,1.0,COLEGIO DUNALASTAIR,-33.37455,-70.52093,$25.001 A $50.000,MAS DE $100.000,COLEGIO REDLAND SCHOOL,-33.40165,-70.52072,MAS DE $100.000,MAS DE $100.000,2019-01-01
2018-01-01,263,8885,8917,3.0,COLEGIO CRAIGHOUSE,-33.3539,-70.52275,MAS DE $100.000,MAS DE $100.000,COLEGIO REDLAND SCHOOL,-33.40165,-70.52072,MAS DE $100.000,MAS DE $100.000,2019-01-01
2018-01-01,264,8888,26080,1.0,COLEGIO SAINT ANDREW,-33.38888,-70.54024,MAS DE $100.000,MAS DE $100.000,COLEGIO DEL VERBO DIVINO,-33.42012,-70.58665,MAS DE $100.000,MAS DE $100.000,2019-01-01
2018-01-01,265,8888,25278,1.0,COLEGIO CAMPANARIO,-33.76028,-70.73548,MAS DE $100.000,MAS DE $100.000,COLEGIO DEL VERBO DIVINO,-33.42012,-70.58665,MAS DE $100.000,MAS DE $100.000,2019-01-01
2018-01-01,266,8888,8996,1.0,COLEGIO SAN IGNACIO EL BOSQUE,-33.43307,-70.59447,MAS DE $100.000,MAS DE $100.000,COLEGIO DEL VERBO DIVINO,-33.42012,-70.58665,MAS DE $100.000,MAS DE $100.000,2019-01-01
2018-01-01,267,8888,8984,1.0,COLEGIO TREWHELA´S ENGLISH SCHOOL,-33.42258,-70.59742,MAS DE $100.000,MAS DE $100.000,COLEGIO DEL VERBO DIVINO,-33.42012,-70.58665,MAS DE $100.000,MAS DE $100.000,2019-01-01
2018-01-01,268,8888,25643,3.0,ESCUELA BASICA N°1906 THE INTERNATIONAL PREPARATORY SCHOOL,-33.36229,-70.48358,MAS DE $100.000,MAS DE $100.000,COLEGIO DEL VERBO DIVINO,-33.42012,-70.58665,MAS DE $100.000,MAS DE $100.000,2019-01-01
2018-01-01,269,8888,8867,1.0,COLEGIO FRANCISCO DE ASIS,-33.3919,-70.5098,MAS DE $100.000,MAS DE $100.000,COLEGIO DEL VERBO DIVINO,-33.42012,-70.58665,MAS DE $100.000,MAS DE $100.000,2019-01-01
2018-01-01,270,8888,8868,1.0,COLEGIO LA GIROUETTE,-33.42051,-70.56871,MAS DE $100.000,MAS DE $100.000,COLEGIO DEL VERBO DIVINO,-33.42012,-70.58665,MAS DE $100.000,MAS DE $100.000,2019-01-01
2018-01-01,271,8888,8921,2.0,COLEGIO BRITISH HIGH,-33.38921,-70.53135,MAS DE $100.000,MAS DE $100.000,COLEGIO DEL VERBO DIVINO,-33.42012,-70.58665,MAS DE $100.000,MAS DE $100.000,2019-01-01
2018-01-01,272,8888,25143,1.0,COLEGIO SAN FRANCISCO JAVIER DE HUECHURABA,-33.35033,-70.68344,MAS DE $100.000,MAS DE $100.000,COLEGIO DEL VERBO DIVINO,-33.42012,-70.58665,MAS DE $100.000,MAS DE $100.000,2019-01-01
2018-01-01,273,8888,24944,1.0,COLEGIO NUESTRA SEÑORA DEL CAMINO,-33.44513,-70.55209,MAS DE $100.000,MAS DE $100.000,COLEGIO DEL VERBO DIVINO,-33.42012,-70.58665,MAS DE $100.000,MAS DE $100.000,2019-01-01
2018-01-01,274,8888,8893,1.0,COLEGIO INTERNACIONAL SEK CHILE,-33.40303,-70.56446,MAS DE $100.000,MAS DE $100.000,COLEGIO DEL VERBO DIVINO,-33.42012,-70.58665,MAS DE $100.000,MAS DE $100.000,2019-01-01
2018-01-01,275,8888,8919,1.0,COLEGIO SAN PEDRO NOLASCO,-33.39814,-70.573,MAS DE $100.000,MAS DE $100.000,COLEGIO DEL VERBO DIVINO,-33.42012,-70.58665,MAS DE $100.000,MAS DE $100.000,2019-01-01
2018-01-01,276,8888,8869,1.0,COLEGIO THE NEWLAND SCHOOL,-33.35983,-70.53316,MAS DE $100.000,MAS DE $100.000,COLEGIO DEL VERBO DIVINO,-33.42012,-70.58665,MAS DE $100.000,MAS DE $100.000,2019-01-01
2018-01-01,277,8892,24826,1.0,COLEGIO NUESTRA SENORA DEL LORETO,-33.37928,-70.5085,$50.001 A $100.000,MAS DE $100.000,COLEGIO SAN JUAN EVANGELISTA,-33.41495,-70.56326,MAS DE $100.000,MAS DE $100.000,2019-01-01
2018-01-01,278,8892,25310,1.0,COLEGIO SAN NICOLÁS DIÁCONO,-33.27973,-70.7032,MAS DE $100.000,MAS DE $100.000,COLEGIO SAN JUAN EVANGELISTA,-33.41495,-70.56326,MAS DE $100.000,MAS DE $100.000,2019-01-01
2018-01-01,279,8892,25477,1.0,COLEGIO LA MISION,-33.62549,-70.78141,MAS DE $100.000,MAS DE $100.000,COLEGIO SAN JUAN EVANGELISTA,-33.41495,-70.56326,MAS DE $100.000,MAS DE $100.000,2019-01-01
2018-01-01,280,8892,25055,1.0,COLEGIO INSTITUCION TERESIANA,-33.42418,-70.55494,MAS DE $100.000,MAS DE $100.000,COLEGIO SAN JUAN EVANGELISTA,-33.41495,-70.56326,MAS DE $100.000,MAS DE $100.000,2019-01-01
2018-01-01,281,8892,9038,1.0,COLEGIO SAN LUIS DE LAS CONDES,-33.43056,-70.57437,MAS DE $100.000,MAS DE $100.000,COLEGIO SAN JUAN EVANGELISTA,-33.41495,-70.56326,MAS DE $100.000,MAS DE $100.000,2019-01-01
2018-01-01,282,8892,26476,2.0,COLEGIO LINCOLN COLLEGE HUECHURABA,-33.35696,-70.67626,MAS DE $100.000,MAS DE $100.000,COLEGIO SAN JUAN EVANGELISTA,-33.41495,-70.56326,MAS DE $100.000,MAS DE $100.000,2019-01-01
2018-01-01,283,8892,24670,1.0,COLEGIO INTERNACIONAL  ALBA,-33.48077,-70.74487,MAS DE $100.000,MAS DE $100.000,COLEGIO SAN JUAN EVANGELISTA,-33.41495,-70.56326,MAS DE $100.000,MAS DE $100.000,2019-01-01
2018-01-01,284,8892,26080,1.0,COLEGIO SAINT ANDREW,-33.38888,-70.54024,MAS DE $100.000,MAS DE $100.000,COLEGIO SAN JUAN EVANGELISTA,-33.41495,-70.56326,MAS DE $100.000,MAS DE $100.000,2019-01-01
2018-01-01,285,8892,8900,1.0,COLEGIO SEMINARIO PONTIFICIO MENOR,-33.40689,-70.55469,MAS DE $100.000,MAS DE $100.000,COLEGIO SAN JUAN EVANGELISTA,-33.41495,-70.56326,MAS DE $100.000,MAS DE $100.000,2019-01-01
2018-01-01,286,8892,8757,1.0,COLEGIO DE LOS SAGRADOS CORAZONES ALAMEDA,-33.44748,-70.66424,MAS DE $100.000,MAS DE $100.000,COLEGIO SAN JUAN EVANGELISTA,-33.41495,-70.56326,MAS DE $100.000,MAS DE $100.000,2019-01-01
2018-01-01,287,8892,9246,1.0,COLEGIO SAN AGUSTIN,-33.45922,-70.57815,MAS DE $100.000,MAS DE $100.000,COLEGIO SAN JUAN EVANGELISTA,-33.41495,-70.56326,MAS DE $100.000,MAS DE $100.000,2019-01-01
2018-01-01,288,8892,24761,2.0,SAN JUAN DE LAS CONDES,-33.42982,-70.58354,MAS DE $100.000,MAS DE $100.000,COLEGIO SAN JUAN EVANGELISTA,-33.41495,-70.56326,MAS DE $100.000,MAS DE $100.000,2019-01-01
2018-01-01,289,8892,8970,2.0,COLEGIO SAINT GABRIEL´S SCHOOL ANEXO,-33.42741,-70.59282,MAS DE $100.000,MAS DE $100.000,COLEGIO SAN JUAN EVANGELISTA,-33.41495,-70.56326,MAS DE $100.000,MAS DE $100.000,2019-01-01
2018-01-01,290,8892,20502,1.0,"ESCUELA BÁSICA N°2484, COLEGIO PUMAHUE CHICAUMA",-33.304,-70.73806,MAS DE $100.000,MAS DE $100.000,COLEGIO SAN JUAN EVANGELISTA,-33.41495,-70.56326,MAS DE $100.000,MAS DE $100.000,2019-01-01
2018-01-01,291,8892,20299,2.0,"ESCUELA BASICA N°2459, FRANCISCO VARELA",-33.46784,-70.52385,SIN INFORMACION,SIN INFORMACION,COLEGIO SAN JUAN EVANGELISTA,-33.41495,-70.56326,MAS DE $100.000,MAS DE $100.000,2019-01-01
2018-01-01,292,8892,8868,2.0,COLEGIO LA GIROUETTE,-33.42051,-70.56871,MAS DE $100.000,MAS DE $100.000,COLEGIO SAN JUAN EVANGELISTA,-33.41495,-70.56326,MAS DE $100.000,MAS DE $100.000,2019-01-01
2018-01-01,293,8892,9053,2.0,COLEGIO TERESIANO ENRIQUE DE OSSO,-33.44229,-70.57221,MAS DE $100.000,MAS DE $100.000,COLEGIO SAN JUAN EVANGELISTA,-33.41495,-70.56326,MAS DE $100.000,MAS DE $100.000,2019-01-01
2018-01-01,294,8892,9054,1.0,COLEGIO SAINT JOHN´S VILLA ACADEMY,-33.43306,-70.55448,MAS DE $100.000,MAS DE $100.000,COLEGIO SAN JUAN EVANGELISTA,-33.41495,-70.56326,MAS DE $100.000,MAS DE $100.000,2019-01-01
2018-01-01,295,8892,25478,1.0,COLEGIO  MAYOR DE PEÑALOLEN,-33.48988,-70.55728,MAS DE $100.000,MAS DE $100.000,COLEGIO SAN JUAN EVANGELISTA,-33.41495,-70.56326,MAS DE $100.000,MAS DE $100.000,2019-01-01
2018-01-01,296,8892,9249,1.0,COLEGIO SAINT GASPAR COLLEGE,-33.4603,-70.60515,MAS DE $100.000,MAS DE $100.000,COLEGIO SAN JUAN EVANGELISTA,-33.41495,-70.56326,MAS DE $100.000,MAS DE $100.000,2019-01-01
2018-01-01,297,8892,12087,1.0,COLEGIO BRITISH ROYAL SCHOOL,-33.45106,-70.5277,MAS DE $100.000,MAS DE $100.000,COLEGIO SAN JUAN EVANGELISTA,-33.41495,-70.56326,MAS DE $100.000,MAS DE $100.000,2019-01-01
2018-01-01,298,8892,9267,1.0,LICEO EXPERIMENTAL MANUEL DE SALAS,-33.45419,-70.5917,MAS DE $100.000,MAS DE $100.000,COLEGIO SAN JUAN EVANGELISTA,-33.41495,-70.56326,MAS DE $100.000,MAS DE $100.000,2019-01-01
2018-01-01,299,8892,31276,1.0,COLEGIO GRACE COLLEGE,-33.35428,-70.67752,MAS DE $100.000,MAS DE $100.000,COLEGIO SAN JUAN EVANGELISTA,-33.41495,-70.56326,MAS DE $100.000,MAS DE $100.000,2019-01-01
2018-01-01,300,8892,25001,1.0,COLEGIO GREENLAND SCHOOL,-33.45762,-70.72278,MAS DE $100.000,MAS DE $100.000,COLEGIO SAN JUAN EVANGELISTA,-33.41495,-70.56326,MAS DE $100.000,MAS DE $100.000,2019-01-01
2018-01-01,301,8892,25487,1.0,COLEGIO  MANQUECURA VALLE LO CAMPINO,-33.38755,-70.72424,MAS DE $100.000,MAS DE $100.000,COLEGIO SAN JUAN EVANGELISTA,-33.41495,-70.56326,MAS DE $100.000,MAS DE $100.000,2019-01-01
2018-01-01,302,8892,26238,2.0,COLEGIO DEL VERBO DIVINO DE CHICUREO,-33.28783,-70.67051,MAS DE $100.000,MAS DE $100.000,COLEGIO SAN JUAN EVANGELISTA,-33.41495,-70.56326,MAS DE $100.000,MAS DE $100.000,2019-01-01
2018-01-01,303,8892,24642,1.0,COLEGIO ALEMAN DE SANTIAGO ANEXO,-33.39607,-70.56962,MAS DE $100.000,MAS DE $100.000,COLEGIO SAN JUAN EVANGELISTA,-33.41495,-70.56326,MAS DE $100.000,MAS DE $100.000,2019-01-01
2018-01-01,304,8892,8909,1.0,COLEGIO BRADFORD SCHOOL,-33.38399,-70.57339,MAS DE $100.000,MAS DE $100.000,COLEGIO SAN JUAN EVANGELISTA,-33.41495,-70.56326,MAS DE $100.000,MAS DE $100.000,2019-01-01
2018-01-01,305,8892,8984,1.0,COLEGIO TREWHELA´S ENGLISH SCHOOL,-33.42258,-70.59742,MAS DE $100.000,MAS DE $100.000,COLEGIO SAN JUAN EVANGELISTA,-33.41495,-70.56326,MAS DE $100.000,MAS DE $100.000,2019-01-01
2018-01-01,306,8892,9271,1.0,COLEGIO THE KENT SCHOOL,-33.44251,-70.60645,MAS DE $100.000,MAS DE $100.000,COLEGIO SAN JUAN EVANGELISTA,-33.41495,-70.56326,MAS DE $100.000,MAS DE $100.000,2019-01-01
2018-01-01,307,8892,8863,1.0,COLEGIO SCUOLA ITALIANA VITTORIO MONTIGLIO,-33.39681,-70.50497,MAS DE $100.000,MAS DE $100.000,COLEGIO SAN JUAN EVANGELISTA,-33.41495,-70.56326,MAS DE $100.000,MAS DE $100.000,2019-01-01
2018-01-01,308,8893,9259,1.0,COLEGIO MANQUECURA ÑUÑOA,-33.45306,-70.57552,$50.001 A $100.000,MAS DE $100.000,COLEGIO INTERNACIONAL SEK CHILE,-33.40303,-70.56446,MAS DE $100.000,MAS DE $100.000,2019-01-01
2018-01-01,309,8893,25669,1.0,COLEGIO HIGHLANDS,-33.21859,-70.66314,MAS DE $100.000,MAS DE $100.000,COLEGIO INTERNACIONAL SEK CHILE,-33.40303,-70.56446,MAS DE $100.000,MAS DE $100.000,2019-01-01
2018-01-01,310,8893,8914,1.0,COLEGIO WILLIAM KILPATRICK,-33.39464,-70.5214,MAS DE $100.000,MAS DE $100.000,COLEGIO INTERNACIONAL SEK CHILE,-33.40303,-70.56446,MAS DE $100.000,MAS DE $100.000,2019-01-01
2018-01-01,311,8893,24908,4.0,COLEGIO PEDRO DE VALDIVIA LAS CONDES,-33.37046,-70.5082,MAS DE $100.000,MAS DE $100.000,COLEGIO INTERNACIONAL SEK CHILE,-33.40303,-70.56446,MAS DE $100.000,MAS DE $100.000,2019-01-01
2018-01-01,312,8893,8903,1.0,COLEGIO LINCOLN INTERNATIONAL ACADEMY,-33.37027,-70.51083,MAS DE $100.000,MAS DE $100.000,COLEGIO INTERNACIONAL SEK CHILE,-33.40303,-70.56446,MAS DE $100.000,MAS DE $100.000,2019-01-01
2018-01-01,313,8893,8761,1.0,COLEGIO INSTITUTO DE HUMANIDADES LUIS CAMPINO,-33.42616,-70.6112,MAS DE $100.000,MAS DE $100.000,COLEGIO INTERNACIONAL SEK CHILE,-33.40303,-70.56446,MAS DE $100.000,MAS DE $100.000,2019-01-01
2018-01-01,314,8893,8892,1.0,COLEGIO SAN JUAN EVANGELISTA,-33.41495,-70.56326,MAS DE $100.000,MAS DE $100.000,COLEGIO INTERNACIONAL SEK CHILE,-33.40303,-70.56446,MAS DE $100.000,MAS DE $100.000,2019-01-01
2018-01-01,315,8893,25172,1.0,COLEGIO PUMAHUE,-33.49787,-70.54718,MAS DE $100.000,MAS DE $100.000,COLEGIO INTERNACIONAL SEK CHILE,-33.40303,-70.56446,MAS DE $100.000,MAS DE $100.000,2019-01-01
2018-01-01,316,8893,24944,1.0,COLEGIO NUESTRA SEÑORA DEL CAMINO,-33.44513,-70.55209,MAS DE $100.000,MAS DE $100.000,COLEGIO INTERNACIONAL SEK CHILE,-33.40303,-70.56446,MAS DE $100.000,MAS DE $100.000,2019-01-01
2018-01-01,317,8893,8870,1.0,COLEGIO COMPANIA DE MARIA APOQUINDO,-33.40982,-70.56657,MAS DE $100.000,MAS DE $100.000,COLEGIO INTERNACIONAL SEK CHILE,-33.40303,-70.56446,MAS DE $100.000,MAS DE $100.000,2019-01-01
2018-01-01,318,8893,8748,1.0,COLEGIO INSTITUTO ALONSO DE ERCILLA,-33.43771,-70.66662,MAS DE $100.000,MAS DE $100.000,COLEGIO INTERNACIONAL SEK CHILE,-33.40303,-70.56446,MAS DE $100.000,MAS DE $100.000,2019-01-01
2018-01-01,319,8894,8906,1.0,COLEGIO SAINT GEORGE S COLLEGE,-33.38645,-70.60084,MAS DE $100.000,MAS DE $100.000,COLEGIO LA MAISONNETTE,-33.38114,-70.57115,MAS DE $100.000,MAS DE $100.000,2019-01-01
2018-01-01,320,8894,16776,1.0,ESCUELA BÁSICA N°2415 LYCÉE ANTOINE DE SAINT EXUPÉRY,-33.31904,-70.65183,MAS DE $100.000,MAS DE $100.000,COLEGIO LA MAISONNETTE,-33.38114,-70.57115,MAS DE $100.000,MAS DE $100.000,2019-01-01
2018-01-01,321,8894,24718,2.0,COLEGIO HUELQUEN MONTESSORI,-33.3513,-70.5048,MAS DE $100.000,MAS DE $100.000,COLEGIO LA MAISONNETTE,-33.38114,-70.57115,MAS DE $100.000,MAS DE $100.000,2019-01-01
2018-01-01,322,8894,8885,1.0,COLEGIO REDLAND SCHOOL,-33.40165,-70.52072,MAS DE $100.000,MAS DE $100.000,COLEGIO LA MAISONNETTE,-33.38114,-70.57115,MAS DE $100.000,MAS DE $100.000,2019-01-01
2018-01-01,323,8894,11783,1.0,ESCUELA BASICA N°1238 GIORDANO BRUNO,-33.50656,-70.55873,MAS DE $100.000,MAS DE $100.000,COLEGIO LA MAISONNETTE,-33.38114,-70.57115,MAS DE $100.000,MAS DE $100.000,2019-01-01
2018-01-01,324,8894,8869,1.0,COLEGIO THE NEWLAND SCHOOL,-33.35983,-70.53316,MAS DE $100.000,MAS DE $100.000,COLEGIO LA MAISONNETTE,-33.38114,-70.57115,MAS DE $100.000,MAS DE $100.000,2019-01-01
2018-01-01,325,8894,25366,1.0,COLEGIO  LATINOAMERICANO,-33.51191,-70.55864,MAS DE $100.000,MAS DE $100.000,COLEGIO LA MAISONNETTE,-33.38114,-70.57115,MAS DE $100.000,MAS DE $100.000,2019-01-01
2018-01-01,326,8894,8903,1.0,COLEGIO LINCOLN INTERNATIONAL ACADEMY,-33.37027,-70.51083,MAS DE $100.000,MAS DE $100.000,COLEGIO LA MAISONNETTE,-33.38114,-70.57115,MAS DE $100.000,MAS DE $100.000,2019-01-01
2018-01-01,327,8894,8909,2.0,COLEGIO BRADFORD SCHOOL,-33.38399,-70.57339,MAS DE $100.000,MAS DE $100.000,COLEGIO LA MAISONNETTE,-33.38114,-70.57115,MAS DE $100.000,MAS DE $100.000,2019-01-01
2018-01-01,328,8894,11776,1.0,COLEGIO THE MAYFLOWER SCHOOL,-33.34607,-70.50415,MAS DE $100.000,MAS DE $100.000,COLEGIO LA MAISONNETTE,-33.38114,-70.57115,MAS DE $100.000,MAS DE $100.000,2019-01-01
2018-01-01,329,8894,25611,1.0,ESCUELA BASICA N°1889 BARRIE MONTESSORI Nº 2,-33.46969,-70.52384,MAS DE $100.000,MAS DE $100.000,COLEGIO LA MAISONNETTE,-33.38114,-70.57115,MAS DE $100.000,MAS DE $100.000,2019-01-01
2018-01-01,330,8894,8846,2.0,COLEGIO INMACULADA CONCEPCION,-33.40279,-70.59391,$50.001 A $100.000,MAS DE $100.000,COLEGIO LA MAISONNETTE,-33.38114,-70.57115,MAS DE $100.000,MAS DE $100.000,2019-01-01
2018-01-01,331,8895,8903,1.0,COLEGIO LINCOLN INTERNATIONAL ACADEMY,-33.37027,-70.51083,MAS DE $100.000,MAS DE $100.000,COLEGIO DALCAHUE,-33.42521,-70.58745,MAS DE $100.000,MAS DE $100.000,2019-01-01
2018-01-01,332,8895,8914,1.0,COLEGIO WILLIAM KILPATRICK,-33.39464,-70.5214,MAS DE $100.000,MAS DE $100.000,COLEGIO DALCAHUE,-33.42521,-70.58745,MAS DE $100.000,MAS DE $100.000,2019-01-01
2018-01-01,333,8895,8761,1.0,COLEGIO INSTITUTO DE HUMANIDADES LUIS CAMPINO,-33.42616,-70.6112,MAS DE $100.000,MAS DE $100.000,COLEGIO DALCAHUE,-33.42521,-70.58745,MAS DE $100.000,MAS DE $100.000,2019-01-01
2018-01-01,334,8895,25142,2.0,COLEGIO ANDINO ANTILLANCA,-33.42558,-70.57013,MAS DE $100.000,MAS DE $100.000,COLEGIO DALCAHUE,-33.42521,-70.58745,MAS DE $100.000,MAS DE $100.000,2019-01-01
2018-01-01,335,8895,8883,1.0,COLEGIO CONCORDIA,-33.42616,-70.57225,MAS DE $100.000,MAS DE $100.000,COLEGIO DALCAHUE,-33.42521,-70.58745,MAS DE $100.000,MAS DE $100.000,2019-01-01
2018-01-01,336,8895,8919,1.0,COLEGIO SAN PEDRO NOLASCO,-33.39814,-70.573,MAS DE $100.000,MAS DE $100.000,COLEGIO DALCAHUE,-33.42521,-70.58745,MAS DE $100.000,MAS DE $100.000,2019-01-01
2018-01-01,337,8895,24795,3.0,COLEGIO EMAUS,-33.39934,-70.55994,MAS DE $100.000,MAS DE $100.000,COLEGIO DALCAHUE,-33.42521,-70.58745,MAS DE $100.000,MAS DE $100.000,2019-01-01
2018-01-01,338,8895,24884,2.0,COLEGIO ALCAZAR DE LAS CONDES,-33.40622,-70.58062,MAS DE $100.000,MAS DE $100.000,COLEGIO DALCAHUE,-33.42521,-70.58745,MAS DE $100.000,MAS DE $100.000,2019-01-01
2018-01-01,339,8895,8872,1.0,COLEGIO WENLOCK SCHOOL,-33.41128,-70.52214,MAS DE $100.000,MAS DE $100.000,COLEGIO DALCAHUE,-33.42521,-70.58745,MAS DE $100.000,MAS DE $100.000,2019-01-01
2018-01-01,340,8895,8892,1.0,COLEGIO SAN JUAN EVANGELISTA,-33.41495,-70.56326,MAS DE $100.000,MAS DE $100.000,COLEGIO DALCAHUE,-33.42521,-70.58745,MAS DE $100.000,MAS DE $100.000,2019-01-01
2018-01-01,341,8895,12094,1.0,COLEGIO SAN ESTEBAN DIÁCONO,-33.38227,-70.55391,MAS DE $100.000,MAS DE $100.000,COLEGIO DALCAHUE,-33.42521,-70.58745,MAS DE $100.000,MAS DE $100.000,2019-01-01
2018-01-01,342,8895,8878,1.0,COLEGIO DEL SAGRADO CORAZON DE APOQUINDO,-33.41013,-70.54981,MAS DE $100.000,MAS DE $100.000,COLEGIO DALCAHUE,-33.42521,-70.58745,MAS DE $100.000,MAS DE $100.000,2019-01-01
2018-01-01,343,8895,24627,1.0,COLEGIO ETIEVAN,-33.44151,-70.52888,MAS DE $100.000,MAS DE $100.000,COLEGIO DALCAHUE,-33.42521,-70.58745,MAS DE $100.000,MAS DE $100.000,2019-01-01
2018-01-01,344,8895,25058,1.0,COLEGIO LA CANTERA,-33.46115,-70.60757,MAS DE $100.000,MAS DE $100.000,COLEGIO DALCAHUE,-33.42521,-70.58745,MAS DE $100.000,MAS DE $100.000,2019-01-01
2018-01-01,345,8895,8863,1.0,COLEGIO SCUOLA ITALIANA VITTORIO MONTIGLIO,-33.39681,-70.50497,MAS DE $100.000,MAS DE $100.000,COLEGIO DALCAHUE,-33.42521,-70.58745,MAS DE $100.000,MAS DE $100.000,2019-01-01
2018-01-01,346,8900,9054,2.0,COLEGIO SAINT JOHN´S VILLA ACADEMY,-33.43306,-70.55448,MAS DE $100.000,MAS DE $100.000,COLEGIO SEMINARIO PONTIFICIO MENOR,-33.40689,-70.55469,MAS DE $100.000,MAS DE $100.000,2019-01-01
2018-01-01,347,8900,20299,3.0,"ESCUELA BASICA N°2459, FRANCISCO VARELA",-33.46784,-70.52385,SIN INFORMACION,SIN INFORMACION,COLEGIO SEMINARIO PONTIFICIO MENOR,-33.40689,-70.55469,MAS DE $100.000,MAS DE $100.000,2019-01-01
2018-01-01,348,8900,8846,6.0,COLEGIO INMACULADA CONCEPCION,-33.40279,-70.59391,$50.001 A $100.000,MAS DE $100.000,COLEGIO SEMINARIO PONTIFICIO MENOR,-33.40689,-70.55469,MAS DE $100.000,MAS DE $100.000,2019-01-01
2018-01-01,349,8900,20441,2.0,ESCUELA BASICA N°2474 COLEGIO CABO DE HORNOS,-33.1959,-70.67255,MAS DE $100.000,MAS DE $100.000,COLEGIO SEMINARIO PONTIFICIO MENOR,-33.40689,-70.55469,MAS DE $100.000,MAS DE $100.000,2019-01-01
2018-01-01,350,8900,24761,2.0,SAN JUAN DE LAS CONDES,-33.42982,-70.58354,MAS DE $100.000,MAS DE $100.000,COLEGIO SEMINARIO PONTIFICIO MENOR,-33.40689,-70.55469,MAS DE $100.000,MAS DE $100.000,2019-01-01
2018-01-01,351,8900,24718,2.0,COLEGIO HUELQUEN MONTESSORI,-33.3513,-70.5048,MAS DE $100.000,MAS DE $100.000,COLEGIO SEMINARIO PONTIFICIO MENOR,-33.40689,-70.55469,MAS DE $100.000,MAS DE $100.000,2019-01-01
2018-01-01,352,8900,9278,1.0,COLEGIO INSTITUTO SANTA MARIA,-33.4577,-70.59607,MAS DE $100.000,MAS DE $100.000,COLEGIO SEMINARIO PONTIFICIO MENOR,-33.40689,-70.55469,MAS DE $100.000,MAS DE $100.000,2019-01-01
2018-01-01,353,8900,25310,1.0,COLEGIO SAN NICOLÁS DIÁCONO,-33.27973,-70.7032,MAS DE $100.000,MAS DE $100.000,COLEGIO SEMINARIO PONTIFICIO MENOR,-33.40689,-70.55469,MAS DE $100.000,MAS DE $100.000,2019-01-01
2018-01-01,354,8900,9244,2.0,FUNDACIÓN EDUCACIONAL COLEGIO NOTRE DAME,-33.48649,-70.56005,MAS DE $100.000,MAS DE $100.000,COLEGIO SEMINARIO PONTIFICIO MENOR,-33.40689,-70.55469,MAS DE $100.000,MAS DE $100.000,2019-01-01
2018-01-01,355,8900,24908,1.0,COLEGIO PEDRO DE VALDIVIA LAS CONDES,-33.37046,-70.5082,MAS DE $100.000,MAS DE $100.000,COLEGIO SEMINARIO PONTIFICIO MENOR,-33.40689,-70.55469,MAS DE $100.000,MAS DE $100.000,2019-01-01
2018-01-01,356,8900,8919,2.0,COLEGIO SAN PEDRO NOLASCO,-33.39814,-70.573,MAS DE $100.000,MAS DE $100.000,COLEGIO SEMINARIO PONTIFICIO MENOR,-33.40689,-70.55469,MAS DE $100.000,MAS DE $100.000,2019-01-01
2018-01-01,357,8900,8878,3.0,COLEGIO DEL SAGRADO CORAZON DE APOQUINDO,-33.41013,-70.54981,MAS DE $100.000,MAS DE $100.000,COLEGIO SEMINARIO PONTIFICIO MENOR,-33.40689,-70.55469,MAS DE $100.000,MAS DE $100.000,2019-01-01
2018-01-01,358,8900,8966,2.0,COLEGIO SAINT GABRIEL´S SCHOOL LOCAL SEDE,-33.43198,-70.58551,MAS DE $100.000,MAS DE $100.000,COLEGIO SEMINARIO PONTIFICIO MENOR,-33.40689,-70.55469,MAS DE $100.000,MAS DE $100.000,2019-01-01
2018-01-01,359,8900,25278,3.0,COLEGIO CAMPANARIO,-33.76028,-70.73548,MAS DE $100.000,MAS DE $100.000,COLEGIO SEMINARIO PONTIFICIO MENOR,-33.40689,-70.55469,MAS DE $100.000,MAS DE $100.000,2019-01-01
2018-01-01,360,8900,8750,1.0,COLEGIO ACADEMIA DE HUMANIDADES,-33.42343,-70.645,MAS DE $100.000,MAS DE $100.000,COLEGIO SEMINARIO PONTIFICIO MENOR,-33.40689,-70.55469,MAS DE $100.000,MAS DE $100.000,2019-01-01
2018-01-01,361,8900,12265,1.0,COLEGIO THE SOUTHERN CROSS SCHOOL,-33.37034,-70.50531,MAS DE $100.000,MAS DE $100.000,COLEGIO SEMINARIO PONTIFICIO MENOR,-33.40689,-70.55469,MAS DE $100.000,MAS DE $100.000,2019-01-01
2018-01-01,362,8900,24944,1.0,COLEGIO NUESTRA SEÑORA DEL CAMINO,-33.44513,-70.55209,MAS DE $100.000,MAS DE $100.000,COLEGIO SEMINARIO PONTIFICIO MENOR,-33.40689,-70.55469,MAS DE $100.000,MAS DE $100.000,2019-01-01
2018-01-01,363,8900,8893,2.0,COLEGIO INTERNACIONAL SEK CHILE,-33.40303,-70.56446,MAS DE $100.000,MAS DE $100.000,COLEGIO SEMINARIO PONTIFICIO MENOR,-33.40689,-70.55469,MAS DE $100.000,MAS DE $100.000,2019-01-01
2018-01-01,364,8902,24624,1.0,COLEGIO TABOR Y NAZARETH,-33.32493,-70.54153,MAS DE $100.000,MAS DE $100.000,COLEGIO CORDILLERA DE LAS CONDES,-33.39625,-70.51437,MAS DE $100.000,MAS DE $100.000,2019-01-01
2018-01-01,365,8902,25654,2.0,COLEGIO EVEREST,-33.3343,-70.55418,MAS DE $100.000,MAS DE $100.000,COLEGIO CORDILLERA DE LAS CONDES,-33.39625,-70.51437,MAS DE $100.000,MAS DE $100.000,2019-01-01
2018-01-01,366,8902,8867,1.0,COLEGIO FRANCISCO DE ASIS,-33.3919,-70.5098,MAS DE $100.000,MAS DE $100.000,COLEGIO CORDILLERA DE LAS CONDES,-33.39625,-70.51437,MAS DE $100.000,MAS DE $100.000,2019-01-01
2018-01-01,367,8902,11968,1.0,COLEGIO CUMBRES,-33.39602,-70.50479,MAS DE $100.000,MAS DE $100.000,COLEGIO CORDILLERA DE LAS CONDES,-33.39625,-70.51437,MAS DE $100.000,MAS DE $100.000,2019-01-01
2018-01-01,368,8903,8978,1.0,COLEGIO DUNALASTAIR,-33.37455,-70.52093,$25.001 A $50.000,MAS DE $100.000,COLEGIO LINCOLN INTERNATIONAL ACADEMY,-33.37027,-70.51083,MAS DE $100.000,MAS DE $100.000,2019-01-01
2018-01-01,369,8903,26311,9.0,COLEGIO LINCOLN INTERN ACADEMY VALLE NORTE CHICUREO,-33.19401,-70.65999,MAS DE $100.000,MAS DE $100.000,COLEGIO LINCOLN INTERNATIONAL ACADEMY,-33.37027,-70.51083,MAS DE $100.000,MAS DE $100.000,2019-01-01
2018-01-01,370,8903,8909,1.0,COLEGIO BRADFORD SCHOOL,-33.38399,-70.57339,MAS DE $100.000,MAS DE $100.000,COLEGIO LINCOLN INTERNATIONAL ACADEMY,-33.37027,-70.51083,MAS DE $100.000,MAS DE $100.000,2019-01-01
2018-01-01,371,8904,24979,1.0,COLEGIO LOS ALERCES,-33.36407,-70.51881,MAS DE $100.000,MAS DE $100.000,COLEGIO SANTA URSULA,-33.39352,-70.59769,MAS DE $100.000,MAS DE $100.000,2019-01-01
2018-01-01,372,8904,24699,1.0,COLEGIO MAITENES,-33.65852,-71.22885,MAS DE $100.000,MAS DE $100.000,COLEGIO SANTA URSULA,-33.39352,-70.59769,MAS DE $100.000,MAS DE $100.000,2019-01-01
2018-01-01,373,8904,8972,1.0,COLEGIO SAN BENITO,-33.37164,-70.58101,MAS DE $100.000,MAS DE $100.000,COLEGIO SANTA URSULA,-33.39352,-70.59769,MAS DE $100.000,MAS DE $100.000,2019-01-01
2018-01-01,374,8904,8878,1.0,COLEGIO DEL SAGRADO CORAZON DE APOQUINDO,-33.41013,-70.54981,MAS DE $100.000,MAS DE $100.000,COLEGIO SANTA URSULA,-33.39352,-70.59769,MAS DE $100.000,MAS DE $100.000,2019-01-01
2018-01-01,375,8904,8871,1.0,COLEGIO LOS ANDES DE VITACURA,-33.3755,-70.52658,MAS DE $100.000,MAS DE $100.000,COLEGIO SANTA URSULA,-33.39352,-70.59769,MAS DE $100.000,MAS DE $100.000,2019-01-01
2018-01-01,376,8904,8991,1.0,COLEGIO PADRE HURTADO Y JUANITA DE LOS ANDES,-33.41359,-70.51216,MAS DE $100.000,MAS DE $100.000,COLEGIO SANTA URSULA,-33.39352,-70.59769,MAS DE $100.000,MAS DE $100.000,2019-01-01
2018-01-01,377,8904,8979,1.0,COLEGIO ALEMAN DE SANTIAGO,-33.398,-70.56839,MAS DE $100.000,MAS DE $100.000,COLEGIO SANTA URSULA,-33.39352,-70.59769,MAS DE $100.000,MAS DE $100.000,2019-01-01
2018-01-01,378,8905,8846,1.0,COLEGIO INMACULADA CONCEPCION,-33.40279,-70.59391,$50.001 A $100.000,MAS DE $100.000,COLEGIO EL CARMEN TERESIANO I,-33.38005,-70.57058,MAS DE $100.000,MAS DE $100.000,2019-01-01
2018-01-01,379,8905,26238,1.0,COLEGIO DEL VERBO DIVINO DE CHICUREO,-33.28783,-70.67051,MAS DE $100.000,MAS DE $100.000,COLEGIO EL CARMEN TERESIANO I,-33.38005,-70.57058,MAS DE $100.000,MAS DE $100.000,2019-01-01
2018-01-01,380,8905,25373,1.0,COLEGIO SAN RAFAEL ARCANGEL,-33.43659,-70.57406,MAS DE $100.000,MAS DE $100.000,COLEGIO EL CARMEN TERESIANO I,-33.38005,-70.57058,MAS DE $100.000,MAS DE $100.000,2019-01-01
2018-01-01,381,8905,8917,1.0,COLEGIO CRAIGHOUSE,-33.3539,-70.52275,MAS DE $100.000,MAS DE $100.000,COLEGIO EL CARMEN TERESIANO I,-33.38005,-70.57058,MAS DE $100.000,MAS DE $100.000,2019-01-01
2018-01-01,382,8905,8909,1.0,COLEGIO BRADFORD SCHOOL,-33.38399,-70.57339,MAS DE $100.000,MAS DE $100.000,COLEGIO EL CARMEN TERESIANO I,-33.38005,-70.57058,MAS DE $100.000,MAS DE $100.000,2019-01-01
2018-01-01,383,8905,24826,1.0,COLEGIO NUESTRA SENORA DEL LORETO,-33.37928,-70.5085,$50.001 A $100.000,MAS DE $100.000,COLEGIO EL CARMEN TERESIANO I,-33.38005,-70.57058,MAS DE $100.000,MAS DE $100.000,2019-01-01
2018-01-01,384,8905,8877,1.0,COLEGIO DE LOS SAGRADOS CORAZONES,-33.37868,-70.55175,MAS DE $100.000,MAS DE $100.000,COLEGIO EL CARMEN TERESIANO I,-33.38005,-70.57058,MAS DE $100.000,MAS DE $100.000,2019-01-01
2018-01-01,385,8906,8873,2.0,COLEGIO VILLA MARIA ACADEMY,-33.42059,-70.58922,MAS DE $100.000,MAS DE $100.000,COLEGIO SAINT GEORGE S COLLEGE,-33.38645,-70.60084,MAS DE $100.000,MAS DE $100.000,2019-01-01
2018-01-01,386,8906,11971,1.0,COLEGIO SANTO DOMINGO_PADRES DOMINICOS,-33.45064,-70.52094,MAS DE $100.000,MAS DE $100.000,COLEGIO SAINT GEORGE S COLLEGE,-33.38645,-70.60084,MAS DE $100.000,MAS DE $100.000,2019-01-01
2018-01-01,387,8906,24944,1.0,COLEGIO NUESTRA SEÑORA DEL CAMINO,-33.44513,-70.55209,MAS DE $100.000,MAS DE $100.000,COLEGIO SAINT GEORGE S COLLEGE,-33.38645,-70.60084,MAS DE $100.000,MAS DE $100.000,2019-01-01
2018-01-01,388,8906,25055,2.0,COLEGIO INSTITUCION TERESIANA,-33.42418,-70.55494,MAS DE $100.000,MAS DE $100.000,COLEGIO SAINT GEORGE S COLLEGE,-33.38645,-70.60084,MAS DE $100.000,MAS DE $100.000,2019-01-01
2018-01-01,389,8906,12265,1.0,COLEGIO THE SOUTHERN CROSS SCHOOL,-33.37034,-70.50531,MAS DE $100.000,MAS DE $100.000,COLEGIO SAINT GEORGE S COLLEGE,-33.38645,-70.60084,MAS DE $100.000,MAS DE $100.000,2019-01-01
2018-01-01,390,8906,24988,1.0,COLEGIO ALMENAR DEL MAIPO,-33.59628,-70.51526,MAS DE $100.000,MAS DE $100.000,COLEGIO SAINT GEORGE S COLLEGE,-33.38645,-70.60084,MAS DE $100.000,MAS DE $100.000,2019-01-01
2018-01-01,391,8906,8872,1.0,COLEGIO WENLOCK SCHOOL,-33.41128,-70.52214,MAS DE $100.000,MAS DE $100.000,COLEGIO SAINT GEORGE S COLLEGE,-33.38645,-70.60084,MAS DE $100.000,MAS DE $100.000,2019-01-01
2018-01-01,392,8906,9042,1.0,COLEGIO DE LA SALLE,-33.44089,-70.57238,MAS DE $100.000,MAS DE $100.000,COLEGIO SAINT GEORGE S COLLEGE,-33.38645,-70.60084,MAS DE $100.000,MAS DE $100.000,2019-01-01
2018-01-01,393,8909,24908,1.0,COLEGIO PEDRO DE VALDIVIA LAS CONDES,-33.37046,-70.5082,MAS DE $100.000,MAS DE $100.000,COLEGIO BRADFORD SCHOOL,-33.38399,-70.57339,MAS DE $100.000,MAS DE $100.000,2019-01-01
2018-01-01,394,8909,8870,1.0,COLEGIO COMPANIA DE MARIA APOQUINDO,-33.40982,-70.56657,MAS DE $100.000,MAS DE $100.000,COLEGIO BRADFORD SCHOOL,-33.38399,-70.57339,MAS DE $100.000,MAS DE $100.000,2019-01-01
2018-01-01,395,8909,8880,1.0,COLEGIO NIDO DE AGUILAS,-33.35153,-70.50129,MAS DE $100.000,MAS DE $100.000,COLEGIO BRADFORD SCHOOL,-33.38399,-70.57339,MAS DE $100.000,MAS DE $100.000,2019-01-01
2018-01-01,396,8909,8914,1.0,COLEGIO WILLIAM KILPATRICK,-33.39464,-70.5214,MAS DE $100.000,MAS DE $100.000,COLEGIO BRADFORD SCHOOL,-33.38399,-70.57339,MAS DE $100.000,MAS DE $100.000,2019-01-01
2018-01-01,397,8909,25452,1.0,COLEGIO TREBULCO,-33.68304,-70.91765,MAS DE $100.000,MAS DE $100.000,COLEGIO BRADFORD SCHOOL,-33.38399,-70.57339,MAS DE $100.000,MAS DE $100.000,2019-01-01
2018-01-01,398,8909,8878,1.0,COLEGIO DEL SAGRADO CORAZON DE APOQUINDO,-33.41013,-70.54981,MAS DE $100.000,MAS DE $100.000,COLEGIO BRADFORD SCHOOL,-33.38399,-70.57339,MAS DE $100.000,MAS DE $100.000,2019-01-01
2018-01-01,399,8911,20441,1.0,ESCUELA BASICA N°2474 COLEGIO CABO DE HORNOS,-33.1959,-70.67255,MAS DE $100.000,MAS DE $100.000,COLEGIO ARABE,-33.40078,-70.56663,MAS DE $100.000,MAS DE $100.000,2019-01-01
2018-01-01,400,8911,25172,1.0,COLEGIO PUMAHUE,-33.49787,-70.54718,MAS DE $100.000,MAS DE $100.000,COLEGIO ARABE,-33.40078,-70.56663,MAS DE $100.000,MAS DE $100.000,2019-01-01
2018-01-01,401,8911,8966,1.0,COLEGIO SAINT GABRIEL´S SCHOOL LOCAL SEDE,-33.43198,-70.58551,MAS DE $100.000,MAS DE $100.000,COLEGIO ARABE,-33.40078,-70.56663,MAS DE $100.000,MAS DE $100.000,2019-01-01
2018-01-01,402,8911,9046,1.0,COLEGIO THE GRANGE SCHOOL,-33.43794,-70.56862,MAS DE $100.000,MAS DE $100.000,COLEGIO ARABE,-33.40078,-70.56663,MAS DE $100.000,MAS DE $100.000,2019-01-01
2018-01-01,403,8911,11783,1.0,ESCUELA BASICA N°1238 GIORDANO BRUNO,-33.50656,-70.55873,MAS DE $100.000,MAS DE $100.000,COLEGIO ARABE,-33.40078,-70.56663,MAS DE $100.000,MAS DE $100.000,2019-01-01
2018-01-01,404,8911,24908,1.0,COLEGIO PEDRO DE VALDIVIA LAS CONDES,-33.37046,-70.5082,MAS DE $100.000,MAS DE $100.000,COLEGIO ARABE,-33.40078,-70.56663,MAS DE $100.000,MAS DE $100.000,2019-01-01
2018-01-01,405,8911,9051,2.0,COLEGIO ANDREE ENGLISH SCHOOL,-33.43973,-70.55145,MAS DE $100.000,MAS DE $100.000,COLEGIO ARABE,-33.40078,-70.56663,MAS DE $100.000,MAS DE $100.000,2019-01-01
2018-01-01,406,8914,8878,1.0,COLEGIO DEL SAGRADO CORAZON DE APOQUINDO,-33.41013,-70.54981,MAS DE $100.000,MAS DE $100.000,COLEGIO WILLIAM KILPATRICK,-33.39464,-70.5214,MAS DE $100.000,MAS DE $100.000,2019-01-01
2018-01-01,407,8914,8923,1.0,LYCÉE ANTOINE DE SAINT-EXUPÉRY,-33.3949,-70.58243,MAS DE $100.000,MAS DE $100.000,COLEGIO WILLIAM KILPATRICK,-33.39464,-70.5214,MAS DE $100.000,MAS DE $100.000,2019-01-01
2018-01-01,408,8914,24627,1.0,COLEGIO ETIEVAN,-33.44151,-70.52888,MAS DE $100.000,MAS DE $100.000,COLEGIO WILLIAM KILPATRICK,-33.39464,-70.5214,MAS DE $100.000,MAS DE $100.000,2019-01-01
2018-01-01,409,8914,25202,1.0,COLEGIO  PUMAHUE HUECHURABA,-33.35736,-70.66317,MAS DE $100.000,MAS DE $100.000,COLEGIO WILLIAM KILPATRICK,-33.39464,-70.5214,MAS DE $100.000,MAS DE $100.000,2019-01-01
2018-01-01,410,8914,8750,1.0,COLEGIO ACADEMIA DE HUMANIDADES,-33.42343,-70.645,MAS DE $100.000,MAS DE $100.000,COLEGIO WILLIAM KILPATRICK,-33.39464,-70.5214,MAS DE $100.000,MAS DE $100.000,2019-01-01
2018-01-01,411,8914,9051,1.0,COLEGIO ANDREE ENGLISH SCHOOL,-33.43973,-70.55145,MAS DE $100.000,MAS DE $100.000,COLEGIO WILLIAM KILPATRICK,-33.39464,-70.5214,MAS DE $100.000,MAS DE $100.000,2019-01-01
2018-01-01,412,8914,8978,1.0,COLEGIO DUNALASTAIR,-33.37455,-70.52093,$25.001 A $50.000,MAS DE $100.000,COLEGIO WILLIAM KILPATRICK,-33.39464,-70.5214,MAS DE $100.000,MAS DE $100.000,2019-01-01
2018-01-01,413,8914,8903,1.0,COLEGIO LINCOLN INTERNATIONAL ACADEMY,-33.37027,-70.51083,MAS DE $100.000,MAS DE $100.000,COLEGIO WILLIAM KILPATRICK,-33.39464,-70.5214,MAS DE $100.000,MAS DE $100.000,2019-01-01
2018-01-01,414,8914,9250,1.0,COLEGIO CALASANZ,-33.44948,-70.58497,MAS DE $100.000,MAS DE $100.000,COLEGIO WILLIAM KILPATRICK,-33.39464,-70.5214,MAS DE $100.000,MAS DE $100.000,2019-01-01
2018-01-01,415,8914,8893,1.0,COLEGIO INTERNACIONAL SEK CHILE,-33.40303,-70.56446,MAS DE $100.000,MAS DE $100.000,COLEGIO WILLIAM KILPATRICK,-33.39464,-70.5214,MAS DE $100.000,MAS DE $100.000,2019-01-01
2018-01-01,416,8914,24873,1.0,COLEGIO  EPULLAY,-33.47059,-70.52376,MAS DE $100.000,MAS DE $100.000,COLEGIO WILLIAM KILPATRICK,-33.39464,-70.5214,MAS DE $100.000,MAS DE $100.000,2019-01-01
2018-01-01,417,8917,26335,2.0,COLEGIO DUNALASTAIR VALLE NORTE,-33.21198,-70.66491,MAS DE $100.000,MAS DE $100.000,COLEGIO CRAIGHOUSE,-33.3539,-70.52275,MAS DE $100.000,MAS DE $100.000,2019-01-01
2018-01-01,418,8917,8903,4.0,COLEGIO LINCOLN INTERNATIONAL ACADEMY,-33.37027,-70.51083,MAS DE $100.000,MAS DE $100.000,COLEGIO CRAIGHOUSE,-33.3539,-70.52275,MAS DE $100.000,MAS DE $100.000,2019-01-01
2018-01-01,419,8917,8880,1.0,COLEGIO NIDO DE AGUILAS,-33.35153,-70.50129,MAS DE $100.000,MAS DE $100.000,COLEGIO CRAIGHOUSE,-33.3539,-70.52275,MAS DE $100.000,MAS DE $100.000,2019-01-01
2018-01-01,420,8919,8892,3.0,COLEGIO SAN JUAN EVANGELISTA,-33.41495,-70.56326,MAS DE $100.000,MAS DE $100.000,COLEGIO SAN PEDRO NOLASCO,-33.39814,-70.573,MAS DE $100.000,MAS DE $100.000,2019-01-01
2018-01-01,421,8919,20441,2.0,ESCUELA BASICA N°2474 COLEGIO CABO DE HORNOS,-33.1959,-70.67255,MAS DE $100.000,MAS DE $100.000,COLEGIO SAN PEDRO NOLASCO,-33.39814,-70.573,MAS DE $100.000,MAS DE $100.000,2019-01-01
2018-01-01,422,8919,8974,2.0,COLEGIO CAMPVS COLLEGE,-33.43704,-70.61461,MAS DE $100.000,MAS DE $100.000,COLEGIO SAN PEDRO NOLASCO,-33.39814,-70.573,MAS DE $100.000,MAS DE $100.000,2019-01-01
2018-01-01,423,8919,25172,4.0,COLEGIO PUMAHUE,-33.49787,-70.54718,MAS DE $100.000,MAS DE $100.000,COLEGIO SAN PEDRO NOLASCO,-33.39814,-70.573,MAS DE $100.000,MAS DE $100.000,2019-01-01
2018-01-01,424,8919,9051,1.0,COLEGIO ANDREE ENGLISH SCHOOL,-33.43973,-70.55145,MAS DE $100.000,MAS DE $100.000,COLEGIO SAN PEDRO NOLASCO,-33.39814,-70.573,MAS DE $100.000,MAS DE $100.000,2019-01-01
2018-01-01,425,8919,12265,1.0,COLEGIO THE SOUTHERN CROSS SCHOOL,-33.37034,-70.50531,MAS DE $100.000,MAS DE $100.000,COLEGIO SAN PEDRO NOLASCO,-33.39814,-70.573,MAS DE $100.000,MAS DE $100.000,2019-01-01
2018-01-01,426,8919,8893,2.0,COLEGIO INTERNACIONAL SEK CHILE,-33.40303,-70.56446,MAS DE $100.000,MAS DE $100.000,COLEGIO SAN PEDRO NOLASCO,-33.39814,-70.573,MAS DE $100.000,MAS DE $100.000,2019-01-01
2018-01-01,427,8919,24908,3.0,COLEGIO PEDRO DE VALDIVIA LAS CONDES,-33.37046,-70.5082,MAS DE $100.000,MAS DE $100.000,COLEGIO SAN PEDRO NOLASCO,-33.39814,-70.573,MAS DE $100.000,MAS DE $100.000,2019-01-01
2018-01-01,428,8919,24884,1.0,COLEGIO ALCAZAR DE LAS CONDES,-33.40622,-70.58062,MAS DE $100.000,MAS DE $100.000,COLEGIO SAN PEDRO NOLASCO,-33.39814,-70.573,MAS DE $100.000,MAS DE $100.000,2019-01-01
2018-01-01,429,8919,9003,1.0,COLEGIO THE ENGLISH INSTITUTE,-33.44017,-70.60291,MAS DE $100.000,MAS DE $100.000,COLEGIO SAN PEDRO NOLASCO,-33.39814,-70.573,MAS DE $100.000,MAS DE $100.000,2019-01-01
2018-01-01,430,8919,26476,1.0,COLEGIO LINCOLN COLLEGE HUECHURABA,-33.35696,-70.67626,MAS DE $100.000,MAS DE $100.000,COLEGIO SAN PEDRO NOLASCO,-33.39814,-70.573,MAS DE $100.000,MAS DE $100.000,2019-01-01
2018-01-01,431,8919,9004,15.0,COLEGIO UNIVERSITARIO INGLES,-33.42706,-70.62217,MAS DE $100.000,MAS DE $100.000,COLEGIO SAN PEDRO NOLASCO,-33.39814,-70.573,MAS DE $100.000,MAS DE $100.000,2019-01-01
2018-01-01,432,8919,8846,2.0,COLEGIO INMACULADA CONCEPCION,-33.40279,-70.59391,$50.001 A $100.000,MAS DE $100.000,COLEGIO SAN PEDRO NOLASCO,-33.39814,-70.573,MAS DE $100.000,MAS DE $100.000,2019-01-01
2018-01-01,433,8921,8966,1.0,COLEGIO SAINT GABRIEL´S SCHOOL LOCAL SEDE,-33.43198,-70.58551,MAS DE $100.000,MAS DE $100.000,COLEGIO BRITISH HIGH,-33.38921,-70.53135,MAS DE $100.000,MAS DE $100.000,2019-01-01
2018-01-01,434,8921,9053,1.0,COLEGIO TERESIANO ENRIQUE DE OSSO,-33.44229,-70.57221,MAS DE $100.000,MAS DE $100.000,COLEGIO BRITISH HIGH,-33.38921,-70.53135,MAS DE $100.000,MAS DE $100.000,2019-01-01
2018-01-01,435,8921,8870,1.0,COLEGIO COMPANIA DE MARIA APOQUINDO,-33.40982,-70.56657,MAS DE $100.000,MAS DE $100.000,COLEGIO BRITISH HIGH,-33.38921,-70.53135,MAS DE $100.000,MAS DE $100.000,2019-01-01
2018-01-01,436,8921,25675,1.0,COLEGIO PART. CORAZON DE MARIA DE SAN MIGUEL,-33.49819,-70.65727,MAS DE $100.000,MAS DE $100.000,COLEGIO BRITISH HIGH,-33.38921,-70.53135,MAS DE $100.000,MAS DE $100.000,2019-01-01
2018-01-01,437,8921,8974,1.0,COLEGIO CAMPVS COLLEGE,-33.43704,-70.61461,MAS DE $100.000,MAS DE $100.000,COLEGIO BRITISH HIGH,-33.38921,-70.53135,MAS DE $100.000,MAS DE $100.000,2019-01-01
2018-01-01,438,8921,8757,1.0,COLEGIO DE LOS SAGRADOS CORAZONES ALAMEDA,-33.44748,-70.66424,MAS DE $100.000,MAS DE $100.000,COLEGIO BRITISH HIGH,-33.38921,-70.53135,MAS DE $100.000,MAS DE $100.000,2019-01-01
2018-01-01,439,8921,8846,1.0,COLEGIO INMACULADA CONCEPCION,-33.40279,-70.59391,$50.001 A $100.000,MAS DE $100.000,COLEGIO BRITISH HIGH,-33.38921,-70.53135,MAS DE $100.000,MAS DE $100.000,2019-01-01
2018-01-01,440,8921,24761,1.0,SAN JUAN DE LAS CONDES,-33.42982,-70.58354,MAS DE $100.000,MAS DE $100.000,COLEGIO BRITISH HIGH,-33.38921,-70.53135,MAS DE $100.000,MAS DE $100.000,2019-01-01
2018-01-01,441,8921,25224,1.0,COLEGIO BERTAIT COLLEGE,-33.36661,-70.51716,MAS DE $100.000,MAS DE $100.000,COLEGIO BRITISH HIGH,-33.38921,-70.53135,MAS DE $100.000,MAS DE $100.000,2019-01-01
2018-01-01,442,8921,11776,1.0,COLEGIO THE MAYFLOWER SCHOOL,-33.34607,-70.50415,MAS DE $100.000,MAS DE $100.000,COLEGIO BRITISH HIGH,-33.38921,-70.53135,MAS DE $100.000,MAS DE $100.000,2019-01-01
2018-01-01,443,8921,8914,1.0,COLEGIO WILLIAM KILPATRICK,-33.39464,-70.5214,MAS DE $100.000,MAS DE $100.000,COLEGIO BRITISH HIGH,-33.38921,-70.53135,MAS DE $100.000,MAS DE $100.000,2019-01-01
2018-01-01,444,8921,12094,1.0,COLEGIO SAN ESTEBAN DIÁCONO,-33.38227,-70.55391,MAS DE $100.000,MAS DE $100.000,COLEGIO BRITISH HIGH,-33.38921,-70.53135,MAS DE $100.000,MAS DE $100.000,2019-01-01
2018-01-01,445,8921,25055,1.0,COLEGIO INSTITUCION TERESIANA,-33.42418,-70.55494,MAS DE $100.000,MAS DE $100.000,COLEGIO BRITISH HIGH,-33.38921,-70.53135,MAS DE $100.000,MAS DE $100.000,2019-01-01
2018-01-01,446,8921,24624,1.0,COLEGIO TABOR Y NAZARETH,-33.32493,-70.54153,MAS DE $100.000,MAS DE $100.000,COLEGIO BRITISH HIGH,-33.38921,-70.53135,MAS DE $100.000,MAS DE $100.000,2019-01-01
2018-01-01,447,8921,8978,1.0,COLEGIO DUNALASTAIR,-33.37455,-70.52093,$25.001 A $50.000,MAS DE $100.000,COLEGIO BRITISH HIGH,-33.38921,-70.53135,MAS DE $100.000,MAS DE $100.000,2019-01-01
2018-01-01,448,8921,24826,1.0,COLEGIO NUESTRA SENORA DEL LORETO,-33.37928,-70.5085,$50.001 A $100.000,MAS DE $100.000,COLEGIO BRITISH HIGH,-33.38921,-70.53135,MAS DE $100.000,MAS DE $100.000,2019-01-01
2018-01-01,449,8921,8885,1.0,COLEGIO REDLAND SCHOOL,-33.40165,-70.52072,MAS DE $100.000,MAS DE $100.000,COLEGIO BRITISH HIGH,-33.38921,-70.53135,MAS DE $100.000,MAS DE $100.000,2019-01-01
2018-01-01,450,8921,24908,1.0,COLEGIO PEDRO DE VALDIVIA LAS CONDES,-33.37046,-70.5082,MAS DE $100.000,MAS DE $100.000,COLEGIO BRITISH HIGH,-33.38921,-70.53135,MAS DE $100.000,MAS DE $100.000,2019-01-01
2018-01-01,451,8921,8979,1.0,COLEGIO ALEMAN DE SANTIAGO,-33.398,-70.56839,MAS DE $100.000,MAS DE $100.000,COLEGIO BRITISH HIGH,-33.38921,-70.53135,MAS DE $100.000,MAS DE $100.000,2019-01-01
2018-01-01,452,8921,11968,1.0,COLEGIO CUMBRES,-33.39602,-70.50479,MAS DE $100.000,MAS DE $100.000,COLEGIO BRITISH HIGH,-33.38921,-70.53135,MAS DE $100.000,MAS DE $100.000,2019-01-01
2018-01-01,453,8921,9038,2.0,COLEGIO SAN LUIS DE LAS CONDES,-33.43056,-70.57437,MAS DE $100.000,MAS DE $100.000,COLEGIO BRITISH HIGH,-33.38921,-70.53135,MAS DE $100.000,MAS DE $100.000,2019-01-01
2018-01-01,454,8921,9237,1.0,INSTITUTO HEBREO DR CHAIM WEIZMANN-ORT,-33.36979,-70.50739,MAS DE $100.000,MAS DE $100.000,COLEGIO BRITISH HIGH,-33.38921,-70.53135,MAS DE $100.000,MAS DE $100.000,2019-01-01
2018-01-01,455,8921,24986,1.0,COLEGIO CENTENARIO,-33.49993,-70.76097,MAS DE $100.000,MAS DE $100.000,COLEGIO BRITISH HIGH,-33.38921,-70.53135,MAS DE $100.000,MAS DE $100.000,2019-01-01
2018-01-01,456,8921,8893,4.0,COLEGIO INTERNACIONAL SEK CHILE,-33.40303,-70.56446,MAS DE $100.000,MAS DE $100.000,COLEGIO BRITISH HIGH,-33.38921,-70.53135,MAS DE $100.000,MAS DE $100.000,2019-01-01
2018-01-01,457,8921,8880,2.0,COLEGIO NIDO DE AGUILAS,-33.35153,-70.50129,MAS DE $100.000,MAS DE $100.000,COLEGIO BRITISH HIGH,-33.38921,-70.53135,MAS DE $100.000,MAS DE $100.000,2019-01-01
2018-01-01,458,8921,8873,1.0,COLEGIO VILLA MARIA ACADEMY,-33.42059,-70.58922,MAS DE $100.000,MAS DE $100.000,COLEGIO BRITISH HIGH,-33.38921,-70.53135,MAS DE $100.000,MAS DE $100.000,2019-01-01
2018-01-01,459,8923,8877,1.0,COLEGIO DE LOS SAGRADOS CORAZONES,-33.37868,-70.55175,MAS DE $100.000,MAS DE $100.000,LYCÉE ANTOINE DE SAINT-EXUPÉRY,-33.3949,-70.58243,MAS DE $100.000,MAS DE $100.000,2019-01-01
2018-01-01,460,8923,8868,1.0,COLEGIO LA GIROUETTE,-33.42051,-70.56871,MAS DE $100.000,MAS DE $100.000,LYCÉE ANTOINE DE SAINT-EXUPÉRY,-33.3949,-70.58243,MAS DE $100.000,MAS DE $100.000,2019-01-01
2018-01-01,461,8923,16776,1.0,ESCUELA BÁSICA N°2415 LYCÉE ANTOINE DE SAINT EXUPÉRY,-33.31904,-70.65183,MAS DE $100.000,MAS DE $100.000,LYCÉE ANTOINE DE SAINT-EXUPÉRY,-33.3949,-70.58243,MAS DE $100.000,MAS DE $100.000,2019-01-01
2018-01-01,462,8923,8959,1.0,COLEGIO SUPERIOR CAMBRIDGE,-33.44031,-70.63028,MAS DE $100.000,MAS DE $100.000,LYCÉE ANTOINE DE SAINT-EXUPÉRY,-33.3949,-70.58243,MAS DE $100.000,MAS DE $100.000,2019-01-01
2018-01-01,463,8923,24718,1.0,COLEGIO HUELQUEN MONTESSORI,-33.3513,-70.5048,MAS DE $100.000,MAS DE $100.000,LYCÉE ANTOINE DE SAINT-EXUPÉRY,-33.3949,-70.58243,MAS DE $100.000,MAS DE $100.000,2019-01-01
2018-01-01,464,8923,9216,1.0,COLEGIO SUIZO DE SANTIAGO,-33.45668,-70.60865,MAS DE $100.000,MAS DE $100.000,LYCÉE ANTOINE DE SAINT-EXUPÉRY,-33.3949,-70.58243,MAS DE $100.000,MAS DE $100.000,2019-01-01
2018-01-01,465,8950,25310,1.0,COLEGIO SAN NICOLÁS DIÁCONO,-33.27973,-70.7032,MAS DE $100.000,MAS DE $100.000,COLEGIO COMPANIA DE MARIA-SEMINARIO,-33.43723,-70.63094,MAS DE $100.000,MAS DE $100.000,2019-01-01
2018-01-01,466,8950,8769,1.0,COLEGIO SANTA MARIA CERVELLON,-33.41086,-70.65913,MAS DE $100.000,MAS DE $100.000,COLEGIO COMPANIA DE MARIA-SEMINARIO,-33.43723,-70.63094,MAS DE $100.000,MAS DE $100.000,2019-01-01
2018-01-01,467,8950,8959,2.0,COLEGIO SUPERIOR CAMBRIDGE,-33.44031,-70.63028,MAS DE $100.000,MAS DE $100.000,COLEGIO COMPANIA DE MARIA-SEMINARIO,-33.43723,-70.63094,MAS DE $100.000,MAS DE $100.000,2019-01-01
2018-01-01,468,8950,9004,2.0,COLEGIO UNIVERSITARIO INGLES,-33.42706,-70.62217,MAS DE $100.000,MAS DE $100.000,COLEGIO COMPANIA DE MARIA-SEMINARIO,-33.43723,-70.63094,MAS DE $100.000,MAS DE $100.000,2019-01-01
2018-01-01,469,8950,9276,1.0,COLEGIO UNIVERSITARIO EL SALVADOR,-33.44836,-70.62163,MAS DE $100.000,MAS DE $100.000,COLEGIO COMPANIA DE MARIA-SEMINARIO,-33.43723,-70.63094,MAS DE $100.000,MAS DE $100.000,2019-01-01
2018-01-01,470,8950,24798,1.0,COLEGIO SANTA MARIA DE LO CANAS,-33.52762,-70.5523,MAS DE $100.000,MAS DE $100.000,COLEGIO COMPANIA DE MARIA-SEMINARIO,-33.43723,-70.63094,MAS DE $100.000,MAS DE $100.000,2019-01-01
2018-01-01,471,8950,9267,1.0,LICEO EXPERIMENTAL MANUEL DE SALAS,-33.45419,-70.5917,MAS DE $100.000,MAS DE $100.000,COLEGIO COMPANIA DE MARIA-SEMINARIO,-33.43723,-70.63094,MAS DE $100.000,MAS DE $100.000,2019-01-01
2018-01-01,472,8950,8609,1.0,COLEGIO SAN IGNACIO,-33.44706,-70.65616,MAS DE $100.000,MAS DE $100.000,COLEGIO COMPANIA DE MARIA-SEMINARIO,-33.43723,-70.63094,MAS DE $100.000,MAS DE $100.000,2019-01-01
2018-01-01,473,8950,9855,3.0,COLEGIO PRINCESS ANNE SCHOOL,-33.52099,-70.66013,MAS DE $100.000,MAS DE $100.000,COLEGIO COMPANIA DE MARIA-SEMINARIO,-33.43723,-70.63094,MAS DE $100.000,MAS DE $100.000,2019-01-01
2018-01-01,474,8950,11962,1.0,COLEGIO  PEDRO DE VALDIVIA-AGUSTINAS,-33.44203,-70.66454,MAS DE $100.000,MAS DE $100.000,COLEGIO COMPANIA DE MARIA-SEMINARIO,-33.43723,-70.63094,MAS DE $100.000,MAS DE $100.000,2019-01-01
2018-01-01,475,8950,8992,1.0,COLEGIO ALEMAN SANKT THOMAS MORUS,-33.42637,-70.61112,MAS DE $100.000,MAS DE $100.000,COLEGIO COMPANIA DE MARIA-SEMINARIO,-33.43723,-70.63094,MAS DE $100.000,MAS DE $100.000,2019-01-01
2018-01-01,476,8950,24977,1.0,COLEGIO MAYOR TOBALABA,-33.56258,-70.55605,MAS DE $100.000,MAS DE $100.000,COLEGIO COMPANIA DE MARIA-SEMINARIO,-33.43723,-70.63094,MAS DE $100.000,MAS DE $100.000,2019-01-01
2018-01-01,477,8950,25675,1.0,COLEGIO PART. CORAZON DE MARIA DE SAN MIGUEL,-33.49819,-70.65727,MAS DE $100.000,MAS DE $100.000,COLEGIO COMPANIA DE MARIA-SEMINARIO,-33.43723,-70.63094,MAS DE $100.000,MAS DE $100.000,2019-01-01
2018-01-01,478,8950,26046,2.0,COLEGIO  MANQUECURA CIUDAD DE LOS VALLES,-33.45062,-70.84866,MAS DE $100.000,MAS DE $100.000,COLEGIO COMPANIA DE MARIA-SEMINARIO,-33.43723,-70.63094,MAS DE $100.000,MAS DE $100.000,2019-01-01
2018-01-01,479,8950,25666,1.0,COLEGIO  UNITED COLLEGE,-33.44062,-70.62819,MAS DE $100.000,MAS DE $100.000,COLEGIO COMPANIA DE MARIA-SEMINARIO,-33.43723,-70.63094,MAS DE $100.000,MAS DE $100.000,2019-01-01
2018-01-01,480,8950,24670,1.0,COLEGIO INTERNACIONAL  ALBA,-33.48077,-70.74487,MAS DE $100.000,MAS DE $100.000,COLEGIO COMPANIA DE MARIA-SEMINARIO,-33.43723,-70.63094,MAS DE $100.000,MAS DE $100.000,2019-01-01
2018-01-01,481,8950,25477,1.0,COLEGIO LA MISION,-33.62549,-70.78141,MAS DE $100.000,MAS DE $100.000,COLEGIO COMPANIA DE MARIA-SEMINARIO,-33.43723,-70.63094,MAS DE $100.000,MAS DE $100.000,2019-01-01
2018-01-01,482,8950,25001,1.0,COLEGIO GREENLAND SCHOOL,-33.45762,-70.72278,MAS DE $100.000,MAS DE $100.000,COLEGIO COMPANIA DE MARIA-SEMINARIO,-33.43723,-70.63094,MAS DE $100.000,MAS DE $100.000,2019-01-01
2018-01-01,483,8950,24842,1.0,COLEGIO LA FONTAINE,-33.45359,-70.58,MAS DE $100.000,MAS DE $100.000,COLEGIO COMPANIA DE MARIA-SEMINARIO,-33.43723,-70.63094,MAS DE $100.000,MAS DE $100.000,2019-01-01
2018-01-01,484,8950,8759,1.0,COLEGIO SANTA CECILIA,-33.4408,-70.66682,MAS DE $100.000,MAS DE $100.000,COLEGIO COMPANIA DE MARIA-SEMINARIO,-33.43723,-70.63094,MAS DE $100.000,MAS DE $100.000,2019-01-01
2018-01-01,485,8950,8998,1.0,COLEGIO CAMBRIDGE COLLEGE,-33.42972,-70.61707,MAS DE $100.000,MAS DE $100.000,COLEGIO COMPANIA DE MARIA-SEMINARIO,-33.43723,-70.63094,MAS DE $100.000,MAS DE $100.000,2019-01-01
2018-01-01,486,8950,9053,1.0,COLEGIO TERESIANO ENRIQUE DE OSSO,-33.44229,-70.57221,MAS DE $100.000,MAS DE $100.000,COLEGIO COMPANIA DE MARIA-SEMINARIO,-33.43723,-70.63094,MAS DE $100.000,MAS DE $100.000,2019-01-01
2018-01-01,487,8950,9259,1.0,COLEGIO MANQUECURA ÑUÑOA,-33.45306,-70.57552,$50.001 A $100.000,MAS DE $100.000,COLEGIO COMPANIA DE MARIA-SEMINARIO,-33.43723,-70.63094,MAS DE $100.000,MAS DE $100.000,2019-01-01
2018-01-01,488,8953,8867,4.0,COLEGIO FRANCISCO DE ASIS,-33.3919,-70.5098,MAS DE $100.000,MAS DE $100.000,COLEGIO HUELEN,-33.37798,-70.57543,MAS DE $100.000,MAS DE $100.000,2019-01-01
2018-01-01,489,8953,25348,1.0,COLEGIO  SAN JOSE DE CHICUREO,-33.278,-70.63866,MAS DE $100.000,MAS DE $100.000,COLEGIO HUELEN,-33.37798,-70.57543,MAS DE $100.000,MAS DE $100.000,2019-01-01
2018-01-01,490,8953,24624,1.0,COLEGIO TABOR Y NAZARETH,-33.32493,-70.54153,MAS DE $100.000,MAS DE $100.000,COLEGIO HUELEN,-33.37798,-70.57543,MAS DE $100.000,MAS DE $100.000,2019-01-01
2018-01-01,491,8953,25654,1.0,COLEGIO EVEREST,-33.3343,-70.55418,MAS DE $100.000,MAS DE $100.000,COLEGIO HUELEN,-33.37798,-70.57543,MAS DE $100.000,MAS DE $100.000,2019-01-01
